[{"hotel_img": "//dimg11.c-ctrip.com/images/200b0e00000073u089FB4_R_170_170.jpg", "hotel_lon": "112.978941", "hotel_facility": ["公共区域免费WIFI", "停车场", "餐厅", "会议室"], "hotel_id": "5918141", "hotel_judgement": "4097", "hotel_address": "开福区营盘路6号，近湘江中路。 ", "hotel_price": "489", "hotel_lat": "28.21087", "hotel_point": "4.8", "hotel_label": ["考场周边", "休闲度假", "浪漫情侣"], "hotel_name": "长沙品酒店"},
{"hotel_img": "//dimg10.c-ctrip.com/images/20040m000000dexx577F3_R_170_170.jpg", "hotel_lon": "113.03589261225", "hotel_facility": ["公共区域免费WIFI", "停车场", "餐厅", "游泳池", "健身房", "会议室"], "hotel_id": "770925", "hotel_judgement": "10060", "hotel_address": "雨花区万家丽中路二段8号，近地铁2号线长沙大道口居然之家。 ", "hotel_price": "403", "hotel_lat": "28.175126144211", "hotel_point": "4.6", "hotel_label": ["考场周边", "休闲度假", "浪漫情侣"], "hotel_name": "长沙华晨豪生大酒店"},
{"hotel_img": "//dimg12.c-ctrip.com/images/2005050000000djyj8223_R_170_170.jpg", "hotel_lon": "112.97576371307", "hotel_facility": ["公共区域免费WIFI", "停车场", "餐厅", "会议室"], "hotel_id": "1250258", "hotel_judgement": "14760", "hotel_address": "天心区湘江中路2段18号（地铁湘江中路1号口处），面朝湘江，一览橘洲美景，品奢华智能完美结合非凡新体验,，近橘子洲步行街坡子街。 ", "hotel_price": "601", "hotel_lat": "28.198982188908", "hotel_point": "4.7", "hotel_label": ["考场周边", "浪漫情侣", "商务出行"], "hotel_name": "长沙异国风情御尊酒店"},
{"hotel_img": "//dimg11.c-ctrip.com/images/200e05000000128ox94C5_R_170_170.jpg", "hotel_lon": "112.98254252433", "hotel_facility": ["公共区域免费WIFI", "停车场", "餐厅", "会议室"], "hotel_id": "469562", "hotel_judgement": "8769", "hotel_address": "开福区黄兴中路87号，地铁1、2号线换乘五一广场站7号出口20米，近步行街。。 ", "hotel_price": "299", "hotel_lat": "28.202520821117", "hotel_point": "4.3", "hotel_label": ["考场周边", "浪漫情侣", "商务出行"], "hotel_name": "长沙万代大酒店"},
{"hotel_img": "//dimg12.c-ctrip.com/images/200r0n000000efc42F6D2_R_170_170.jpg", "hotel_lon": "113.04652306656", "hotel_facility": ["公共区域免费WIFI", "停车场", "餐厅", "健身房", "会议室"], "hotel_id": "2379423", "hotel_judgement": "7672", "hotel_address": "雨花区万家丽中路199号，湘府路、万家丽路交汇处东南角.提前2小时预约高铁接送服务。 ", "hotel_price": "449", "hotel_lat": "28.122482696721", "hotel_point": "4.8", "hotel_label": ["考场周边", "休闲度假", "浪漫情侣"], "hotel_name": "长沙雅士亚华美达广场酒店"},
{"hotel_img": "//dimg10.c-ctrip.com/images/200n0q000000g3rtq772B_R_170_170.jpg", "hotel_lon": "113.063132", "hotel_facility": ["公共区域免费WIFI", "停车场", "餐厅", "会议室"], "hotel_id": "15975907", "hotel_judgement": "199", "hotel_address": "开福区三一大道526号，近湖南广电中心、中南汽车城、海底世界、世界之窗。 ", "hotel_price": "299", "hotel_lat": "28.236175", "hotel_point": "4.7", "hotel_label": ["商务出行"], "hotel_name": "宜尚酒店(湖南广电中心店)"},
{"hotel_img": "//dimg11.c-ctrip.com/images/fd/hotel/g2/M0A/09/B0/Cghzf1VIZfGAYHD2AADi6VnQgc4745_R_170_170.jpg", "hotel_lon": "113.03680425068", "hotel_facility": ["公共区域免费WIFI", "停车场", "餐厅", "接机服务", "游泳池", "健身房"], "hotel_id": "705256", "hotel_judgement": "5040", "hotel_address": "雨花区万家丽中路二段81号，近劳动东路。 ", "hotel_price": "316", "hotel_lat": "28.168275698002", "hotel_point": "4.5", "hotel_label": ["考场周边", "休闲度假", "浪漫情侣"], "hotel_name": "长沙华雅国际大酒店"},
{"hotel_img": "//dimg10.c-ctrip.com/images/200g0n000000e0y4i08DD_R_170_170.jpg", "hotel_lon": "112.98210259244", "hotel_facility": ["公共区域免费WIFI", "停车场", "餐厅", "接机服务", "游泳池", "健身房"], "hotel_id": "426575", "hotel_judgement": "3741", "hotel_address": "开福区五一大道868号，近地铁二号线五一广场站8号出口。 ", "hotel_price": "348", "hotel_lat": "28.201318522136", "hotel_point": "4.5", "hotel_label": ["考场周边", "浪漫情侣", "商务出行"], "hotel_name": "长沙美爵酒店"},
{"hotel_img": "//dimg11.c-ctrip.com/images/hotel/741000/740279/45f97025d9aa44de8ce99efbee6f8635_R_170_170.jpg", "hotel_lon": "113.01332176572", "hotel_facility": ["公共区域免费WIFI", "停车场", "餐厅", "会议室"], "hotel_id": "740279", "hotel_judgement": "6858", "hotel_address": "芙蓉区晓园路69号，近省博物馆、五一路，距地铁站-长沙火车站步行5分钟。。 ", "hotel_price": "269", "hotel_lat": "28.20268583275", "hotel_point": "4.6", "hotel_label": ["考场周边", "浪漫情侣", "商务出行"], "hotel_name": "长沙和一湘科大酒店"},
{"hotel_img": "//dimg12.c-ctrip.com/images/200w0c00000065xhhA363_R_170_170.jpg", "hotel_lon": "113.00109652231", "hotel_facility": ["公共区域免费WIFI", "停车场", "餐厅", "接机服务", "游泳池", "健身房"], "hotel_id": "986877", "hotel_judgement": "4186", "hotel_address": "雨花区韶山中路419号，近东塘、雨花亭。 ", "hotel_price": "868", "hotel_lat": "28.163578847175", "hotel_point": "4.8", "hotel_label": ["考场周边", "浪漫情侣", "商务出行"], "hotel_name": "长沙顺天凯宾斯基酒店"},
{"hotel_img": "//dimg11.c-ctrip.com/images/20040j000000afhsc29CB_R_170_170.jpg", "hotel_lon": "112.99415871675", "hotel_facility": ["公共区域免费WIFI", "停车场", "餐厅", "接机服务", "游泳池", "健身房"], "hotel_id": "1065384", "hotel_judgement": "3653", "hotel_address": "天心区芙蓉南路二段128号，地铁1号线桂花坪站口,近省政府,奥特莱斯。 ", "hotel_price": "468", "hotel_lat": "28.101022767557", "hotel_point": "4.8", "hotel_label": ["考场周边", "浪漫情侣", "商务出行"], "hotel_name": "长沙现代凯莱大酒店"},
{"hotel_img": "//dimg13.c-ctrip.com/images/fd/hotel/g1/M0A/A3/A1/CghzfVW60GmAS-Q-AAmV0AAoYi4566_R_170_170.jpg", "hotel_lon": "113.038469", "hotel_facility": ["公共区域免费WIFI", "停车场", "餐厅", "接机服务", "会议室"], "hotel_id": "2588730", "hotel_judgement": "3754", "hotel_address": "雨花区湘府东路160号（省植物园北门斜对面），近万家丽路。 ", "hotel_price": "349", "hotel_lat": "28.119144", "hotel_point": "4.7", "hotel_label": ["考场周边", "浪漫情侣", "商务出行"], "hotel_name": "长沙星享尊品酒店"},
{"hotel_img": "//dimg12.c-ctrip.com/images/200i0h0000008tqgyA405_R_170_170.jpg", "hotel_lon": "112.992326", "hotel_facility": ["公共区域免费WIFI", "停车场", "餐厅", "接机服务", "游泳池", "健身房"], "hotel_id": "7014270", "hotel_judgement": "631", "hotel_address": "开福区芙蓉中路1段416号，近中南大学湘雅医院，湖南省妇幼保健院，泊富国际广场，绿地中心。 ", "hotel_price": "530", "hotel_lat": "28.214689", "hotel_point": "4.7", "hotel_label": ["考场周边", "公寓", "浪漫情侣"], "hotel_name": "长沙泊富名致服务公寓"},
{"hotel_img": "//dimg12.c-ctrip.com/images/2007060000001hhj9D23F_R_170_170.jpg", "hotel_lon": "112.97619279771", "hotel_facility": ["公共区域免费WIFI", "停车场", "会议室"], "hotel_id": "5085724", "hotel_judgement": "10065", "hotel_address": "天心区湘江中路2段36号海信广场，（地铁湘江中路1号出口）观橘洲烟花，赏橘洲美景，近步行街、火宫殿。。 ", "hotel_price": "526", "hotel_lat": "28.195813436178", "hotel_point": "4.7", "hotel_label": ["考场周边", "浪漫情侣", "商务出行"], "hotel_name": "长沙华瑞和酒店"},
{"hotel_img": "//dimg11.c-ctrip.com/images/200p080000002tm8uC91B_R_170_170.jpg", "hotel_lon": "113.013055", "hotel_facility": ["公共区域免费WIFI", "停车场"], "hotel_id": "5916098", "hotel_judgement": "7356", "hotel_address": "芙蓉区五一大道65号，近机场民航大巴起始站、近五一广场、近芙蓉广场。 ", "hotel_price": "324", "hotel_lat": "28.199986", "hotel_point": "4.9", "hotel_label": ["考场周边", "浪漫情侣"], "hotel_name": "桔子酒店·精选(长沙五一大道店)"},
{"hotel_img": "//dimg10.c-ctrip.com/images/t1/hotel/100000/99489/ea5395f198fb475f94f7a881e4c83624_R_170_170.jpg", "hotel_lon": "112.99885157414", "hotel_facility": ["公共区域免费WIFI", "停车场"], "hotel_id": "1433026", "hotel_judgement": "9125", "hotel_address": "开福区迎宾路235号（烈士公园南门对面），近湖南省政协委员会、地铁2号线迎宾路站5号出口、湖南省博物馆、长沙市一中、湖南省展览馆。 ", "hotel_price": "178", "hotel_lat": "28.208558437763", "hotel_point": "4.9", "hotel_label": ["考场周边", "浪漫情侣"], "hotel_name": "慧友美宿酒店(长沙烈士公园迎宾路口地铁站店)"},
{"hotel_img": "//dimg11.c-ctrip.com/images/20050e00000075xwc9FB0_R_170_170.jpg", "hotel_lon": "112.98393810098", "hotel_facility": ["公共区域免费WIFI", "停车场", "餐厅", "会议室"], "hotel_id": "740307", "hotel_judgement": "4700", "hotel_address": "城南西路228号，天心阁公园旁。 ", "hotel_price": "398", "hotel_lat": "28.189322624528", "hotel_point": "4.6", "hotel_label": ["考场周边", "浪漫情侣", "商务出行"], "hotel_name": "长沙海富丽景酒店"},
{"hotel_img": "//dimg11.c-ctrip.com/images/200h0c00000064asx9FFE_R_170_170.jpg", "hotel_lon": "112.97619279771", "hotel_facility": ["公共区域免费WIFI", "餐厅", "接机服务"], "hotel_id": "6270585", "hotel_judgement": "1596", "hotel_address": "天心区湘江中路2段36号海信广场华远国际公寓20楼，坡子街、步行街、橘子洲、火宫殿、IFS国金中心。 ", "hotel_price": "313", "hotel_lat": "28.195813436178", "hotel_point": "4.7", "hotel_label": ["考场周边", "公寓", "浪漫情侣"], "hotel_name": "全际优品酒店公寓(长沙五一广场华远店)"},
{"hotel_img": "//dimg10.c-ctrip.com/images/fd/hotel/g4/M03/31/DA/CggYHlYD3h-AR2gEAAS6I3NzKeM907_R_170_170.jpg", "hotel_lon": "113.00435183999", "hotel_facility": ["公共区域免费WIFI", "停车场", "餐厅", "接机服务", "游泳池", "健身房"], "hotel_id": "435873", "hotel_judgement": "2491", "hotel_address": "芙蓉区韶山北路159号，近五一路。 ", "hotel_price": "586", "hotel_lat": "28.19483142573", "hotel_point": "4.7", "hotel_label": ["考场周边", "休闲度假", "浪漫情侣"], "hotel_name": "长沙通程国际大酒店"},
{"hotel_img": "//dimg13.c-ctrip.com/images/fd/hotel/g3/M03/51/43/CggYGVX4YMKAE7UZAAM5R4bEsbI971_R_170_170.jpg", "hotel_lon": "112.98811520716", "hotel_facility": ["公共区域免费WIFI", "停车场", "餐厅", "接机服务", "会议室"], "hotel_id": "450293", "hotel_judgement": "4505", "hotel_address": "芙蓉区蔡锷中路222号，近五一路、国货陈列馆。 ", "hotel_price": "328", "hotel_lat": "28.204561866367", "hotel_point": "4.6", "hotel_label": ["考场周边", "休闲度假", "浪漫情侣"], "hotel_name": "长沙泉昇大酒店"},
{"hotel_img": "//dimg12.c-ctrip.com/images/200w0i0000009fca4C956_R_170_170.jpg", "hotel_lon": "112.992796", "hotel_facility": ["公共区域免费WIFI", "餐厅", "会议室"], "hotel_id": "7916064", "hotel_judgement": "2826", "hotel_address": "芙蓉区芙蓉中路一段507号，邮政总行南侧50米。 ", "hotel_price": "269", "hotel_lat": "28.207543", "hotel_point": "4.9", "hotel_label": ["考场周边", "浪漫情侣", "商务出行"], "hotel_name": "慧友美宿酒店(长沙松桂园芙蓉广场地铁站店)"},
{"hotel_img": "//dimg10.c-ctrip.com/images/200j0p000000fmejk7FE5_R_170_170.jpg", "hotel_lon": "113.090609", "hotel_facility": ["公共区域免费WIFI", "停车场", "餐厅", "接机服务", "会议室"], "hotel_id": "15226694", "hotel_judgement": "87", "hotel_address": "雨花区武广高铁新城国展路101号，地铁2号线光达站4号出口北侧。 ", "hotel_price": "299", "hotel_lat": "28.155349", "hotel_point": "4.3", "hotel_label": ["考场周边"], "hotel_name": "长沙会展宜必思尚品酒店"},
{"hotel_img": "//dimg12.c-ctrip.com/images/200i0q000000g74jrC50F_R_170_170.jpg", "hotel_lon": "113.038916", "hotel_facility": ["公共区域免费WIFI", "停车场", "餐厅", "接机服务", "会议室"], "hotel_id": "12054266", "hotel_judgement": "285", "hotel_address": "香樟路819号，近万家丽高架桥。 ", "hotel_price": "369", "hotel_lat": "28.14432", "hotel_point": "4.7", "hotel_label": ["考场周边", "商务出行"], "hotel_name": "长沙通程逸诚大酒店"},
{"hotel_img": "//dimg12.c-ctrip.com/images/20010l000000dktz9CA34_R_170_170.jpg", "hotel_lon": "113.065856", "hotel_facility": ["公共区域免费WIFI", "停车场", "餐厅", "会议室"], "hotel_id": "6764494", "hotel_judgement": "855", "hotel_address": "芙蓉区远大一路远通国际，东翔易购商城旁，汽车东站正对面。 ", "hotel_price": "268", "hotel_lat": "28.206597", "hotel_point": "4.8", "hotel_label": ["考场周边", "浪漫情侣", "商务出行"], "hotel_name": "长沙远通酒店"},
{"hotel_img": "//dimg12.c-ctrip.com/images/200p0s000000hoa6g9ACC_R_170_170.jpg", "hotel_lon": "112.975762", "hotel_facility": ["公共区域免费WIFI", "餐厅", "健身房"], "hotel_id": "6107292", "hotel_judgement": "1688", "hotel_address": "芙蓉区湘江中路2段36号华远国际公寓，临近橘子洲、步行街、火宫殿。 ", "hotel_price": "326", "hotel_lat": "28.196442", "hotel_point": "4.7", "hotel_label": ["考场周边", "公寓", "浪漫情侣"], "hotel_name": "长沙维福顿华远国际公寓"},
{"hotel_img": "//dimg12.c-ctrip.com/images/20010o000000f0cygBE8D_R_170_170.jpg", "hotel_lon": "112.970532", "hotel_facility": ["公共区域免费WIFI", "停车场", "餐厅", "接机服务", "健身房", "会议室"], "hotel_id": "14420244", "hotel_judgement": "68", "hotel_address": "岳麓区滨江景观道168号，近渔人码头、湘江金融中心、湘江九号、滨江景观道等。 ", "hotel_price": "798", "hotel_lat": "28.241562", "hotel_point": "4.7", "hotel_label": ["考场周边", "商务出行"], "hotel_name": "长沙湘江豪生酒店"},
{"hotel_img": "//dimg12.c-ctrip.com/images/20080k000000boigm9B60_R_170_170.jpg", "hotel_lon": "112.95313252796", "hotel_facility": ["公共区域免费WIFI", "停车场", "餐厅", "健身房", "会议室"], "hotel_id": "456294", "hotel_judgement": "2777", "hotel_address": "岳麓区岳华路268号，近杜鹃路。 ", "hotel_price": "259", "hotel_lat": "28.236092364098", "hotel_point": "4.4", "hotel_label": ["考场周边", "休闲度假", "浪漫情侣"], "hotel_name": "长沙美雅斯国际酒店"},
{"hotel_img": "//dimg11.c-ctrip.com/images/fd/hotel/g3/M03/F8/9E/CggYGVYp6RKAPd9gAADJusj6pC0536_R_170_170.jpg", "hotel_lon": "113.05269221406", "hotel_facility": ["公共区域免费WIFI", "停车场", "餐厅", "会议室"], "hotel_id": "456292", "hotel_judgement": "7188", "hotel_address": "雨花区长沙大道融科檀香山47栋，地铁2号线长沙大道站4号出口直行100米，距高铁南站3.2公里。 ", "hotel_price": "338", "hotel_lat": "28.175113818368", "hotel_point": "4.6", "hotel_label": ["考场周边", "浪漫情侣", "商务出行"], "hotel_name": "延年檀香山酒店(长沙高铁南站店)(原延年檀香山酒店)"},
{"hotel_img": "//dimg10.c-ctrip.com/images/200w0g0000008noh80BF7_R_170_170.jpg", "hotel_lon": "112.98680063108", "hotel_facility": ["公共区域WIFI", "停车场", "餐厅", "会议室"], "hotel_id": "850174", "hotel_judgement": "1703", "hotel_address": "天心区劳动西路256号，（贺龙体育馆南门），距步行街1公里，地铁1号线侯家塘站。 ", "hotel_price": "279", "hotel_lat": "28.180089375363", "hotel_point": "4.4", "hotel_label": ["考场周边", "浪漫情侣", "商务出行"], "hotel_name": "长沙天下洞庭国际大酒店"},
{"hotel_img": "//dimg12.c-ctrip.com/images/fd/hotel/g4/M08/83/36/CggYHFYnOmaARF_EAAEUbUMXt9o788_R_170_170.jpg", "hotel_lon": "113.04453003778", "hotel_facility": ["公共区域免费WIFI", "停车场", "餐厅", "会议室"], "hotel_id": "467417", "hotel_judgement": "3792", "hotel_address": "芙蓉区人民东路299号，近古曲中路。 ", "hotel_price": "328", "hotel_lat": "28.191207042383", "hotel_point": "4.7", "hotel_label": ["考场周边", "浪漫情侣", "商务出行"], "hotel_name": "长沙延年世嘉酒店"},
{"hotel_img": "//dimg13.c-ctrip.com/images/fd/hotel/g4/M0A/83/4F/CggYHVXNmx2AchbnAA3aGGrNJRw399_R_170_170.jpg", "hotel_lon": "113.01632961232", "hotel_facility": ["公共区域免费WIFI", "停车场"], "hotel_id": "2640051", "hotel_judgement": "2580", "hotel_address": "雨花区中意一路181号，近井湾子。 ", "hotel_price": "216", "hotel_lat": "28.12388606817", "hotel_point": "4.6", "hotel_label": ["考场周边", "浪漫情侣"], "hotel_name": "长沙菲尼斯卡骑士酒店"},
{"hotel_img": "//dimg10.c-ctrip.com/images/200k0f0000007bhyb06F5_R_170_170.jpg", "hotel_lon": "112.97681214709", "hotel_facility": ["公共区域免费WIFI", "停车场"], "hotel_id": "2360105", "hotel_judgement": "4487", "hotel_address": "天心区书院南路799号东怡外国体验馆A栋一楼大堂，近南湖路。 ", "hotel_price": "209", "hotel_lat": "28.170133606943", "hotel_point": "4.5", "hotel_label": ["考场周边", "浪漫情侣"], "hotel_name": "长沙斯维登度假公寓(东怡外国)"},
{"hotel_img": "//dimg11.c-ctrip.com/images/200f070000002pikoCC14_R_170_170.jpg", "hotel_lon": "113.013293", "hotel_facility": ["公共区域免费WIFI", "停车场", "餐厅", "接机服务", "健身房", "会议室"], "hotel_id": "3738319", "hotel_judgement": "1599", "hotel_address": "雨花区香樟路225号，近韶山南路。 ", "hotel_price": "286", "hotel_lat": "28.142606", "hotel_point": "4.5", "hotel_label": ["考场周边", "浪漫情侣", "商务出行"], "hotel_name": "长沙红星国际酒店"},
{"hotel_img": "//dimg11.c-ctrip.com/images/20080n000000e49m4C250_R_170_170.jpg", "hotel_lon": "113.026719", "hotel_facility": ["公共区域免费WIFI", "停车场", "餐厅"], "hotel_id": "11157124", "hotel_judgement": "578", "hotel_address": "开福区福元中路与东二环交汇处东南角，近长沙大学、广电会展中心、世界之窗、四方坪。 ", "hotel_price": "249", "hotel_lat": "28.257411", "hotel_point": "4.8", "hotel_label": ["考场周边", "浪漫情侣", "商务出行"], "hotel_name": "长沙逅山寻酒店"},
{"hotel_img": "//dimg11.c-ctrip.com/images/hotel/85000/84599/491281a415bd4fa89dd5e4e443f24d8d_R_170_170.jpg", "hotel_lon": "112.99596900364", "hotel_facility": ["公共区域免费WIFI", "停车场", "餐厅", "接机服务", "会议室"], "hotel_id": "439701", "hotel_judgement": "3664", "hotel_address": "天心区竹塘西路179号，中南大学铁道学院北侧（近省政府）。 ", "hotel_price": "298", "hotel_lat": "28.148076641083", "hotel_point": "4.7", "hotel_label": ["考场周边", "浪漫情侣", "商务出行"], "hotel_name": "长沙湘府国际酒店"},
{"hotel_img": "//dimg13.c-ctrip.com/images/fd/hotel/g6/M02/69/BA/CggYslbPrrSAASfNAAH5qXljzio624_R_170_170.jpg", "hotel_lon": "112.99296991871", "hotel_facility": ["公共区域免费WIFI", "停车场", "餐厅", "接机服务", "会议室"], "hotel_id": "449922", "hotel_judgement": "986", "hotel_address": "雨花区芙蓉中路三段255号，地铁一号线黄土岭站7号出站口。 ", "hotel_price": "375", "hotel_lat": "28.167991490713", "hotel_point": "4.4", "hotel_label": ["考场周边", "休闲度假", "浪漫情侣"], "hotel_name": "长沙五华酒店"},
{"hotel_img": "//dimg12.c-ctrip.com/images/hotel/110000/109098/8610c7b43994466c8e04bdf27b102e63_R_170_170.jpg", "hotel_lon": "112.98765120048", "hotel_facility": ["公共区域免费WIFI", "停车场", "餐厅", "健身房", "会议室"], "hotel_id": "441152", "hotel_judgement": "1423", "hotel_address": "天心区御邦路22号，近省政府，省青少年活动中心，省音乐厅。 ", "hotel_price": "554", "hotel_lat": "28.111787295801", "hotel_point": "4.6", "hotel_label": ["考场周边", "休闲度假", "浪漫情侣"], "hotel_name": "长沙立达人酒店"},
{"hotel_img": "//dimg13.c-ctrip.com/images/200f04000000091ob9205_R_170_170.jpg", "hotel_lon": "113.01301087658", "hotel_facility": ["公共区域免费WIFI", "停车场", "餐厅", "会议室"], "hotel_id": "947056", "hotel_judgement": "758", "hotel_address": "开福区车站北路649号天都大厦，近三一大道、四方坪、国防科大、开福寺。 ", "hotel_price": "330", "hotel_lat": "28.237519630656", "hotel_point": "4.2", "hotel_label": ["休闲度假", "浪漫情侣", "商务出行"], "hotel_name": "长沙天都国际会所酒店"},
{"hotel_img": "//dimg13.c-ctrip.com/images/200o0e000000733qe78F9_R_170_170.jpg", "hotel_lon": "112.903827", "hotel_facility": ["公共区域免费WIFI", "停车场", "餐厅", "游泳池", "健身房", "会议室"], "hotel_id": "7078324", "hotel_judgement": "1688", "hotel_address": "岳麓区桐梓坡西路187号，近丽景路。 ", "hotel_price": "729", "hotel_lat": "28.223836", "hotel_point": "4.8", "hotel_label": ["考场周边", "休闲度假", "浪漫情侣"], "hotel_name": "长沙延年颐景酒店"},
{"hotel_img": "//dimg13.c-ctrip.com/images/fd/hotel/g6/M06/70/DA/CggYtFcTAuCAKn8wAALWEF1PbbI617_R_170_170.jpg", "hotel_lon": "113.038357", "hotel_facility": ["公共区域免费WIFI", "停车场", "餐厅", "游泳池", "健身房", "会议室"], "hotel_id": "4980522", "hotel_judgement": "750", "hotel_address": "芙蓉区万家丽中路99号万家丽国际购物广场南门，无缝对接地铁2号线万家丽广场站2、3号出口。 ", "hotel_price": "554", "hotel_lat": "28.196017", "hotel_point": "4.7", "hotel_label": ["考场周边", "商务出行"], "hotel_name": "长沙万家丽世贸酒店"},
{"hotel_img": "//dimg10.c-ctrip.com/images/hotel/22000/21271/a90977d55d16401ead530f3d6da5ef8c_R_170_170.jpg", "hotel_lon": "112.9935034341", "hotel_facility": ["公共区域免费WIFI", "餐厅", "健身房", "会议室"], "hotel_id": "516213", "hotel_judgement": "1159", "hotel_address": "开福区芙蓉中路一段2号，近三一大道与芙蓉路交汇处西南角（伍家岭立交桥）。 ", "hotel_price": "296", "hotel_lat": "28.233107755841", "hotel_point": "4.2", "hotel_label": ["考场周边", "休闲度假", "商务出行"], "hotel_name": "湖南华悦大酒店"},
{"hotel_img": "//dimg10.c-ctrip.com/images/fd/hotel/g5/M02/1A/E7/CggYr1ci6_2ADXDIAAlAFGGFhTc539_R_170_170.jpg", "hotel_lon": "113.02433982983", "hotel_facility": ["公共区域免费WIFI", "停车场", "餐厅"], "hotel_id": "5096785", "hotel_judgement": "3033", "hotel_address": "雨花区木莲路园康星都荟7栋，近洞井路。 ", "hotel_price": "219", "hotel_lat": "28.135104318106", "hotel_point": "4.8", "hotel_label": ["考场周边", "浪漫情侣"], "hotel_name": "长沙赏悦轻奢酒店"},
{"hotel_img": "//dimg10.c-ctrip.com/images/fd/hotel/g1/M05/00/F2/CghzflVMEvaACeHEABsoKoiTlJU516_R_170_170.jpg", "hotel_lon": "113.02218464304", "hotel_facility": ["公共区域免费WIFI", "停车场", "餐厅", "会议室"], "hotel_id": "686581", "hotel_judgement": "2327", "hotel_address": "雨花区湘府东路2段517号，湘府东路和中意一路交汇处。 ", "hotel_price": "217", "hotel_lat": "28.115433348126", "hotel_point": "4.6", "hotel_label": ["考场周边", "休闲度假", "浪漫情侣"], "hotel_name": "长沙通程盛源酒店"},
{"hotel_img": "//dimg13.c-ctrip.com/images/20090l000000cwbw7616C_R_170_170.jpg", "hotel_lon": "112.976782", "hotel_facility": ["停车场", "健身房"], "hotel_id": "8656867", "hotel_judgement": "623", "hotel_address": "天心区湘江中路36号华远国际公寓(海信广场楼上），近火宫殿,橘子洲,坡子街与内正巷交汇处。 ", "hotel_price": "298", "hotel_lat": "28.19642", "hotel_point": "4.9", "hotel_label": ["考场周边", "亲子酒店", "商务出行"], "hotel_name": "林夕居江景公寓(长沙五一广场华远店)"},
{"hotel_img": "//dimg13.c-ctrip.com/images/200o0o000000f1mqq23A7_R_170_170.jpg", "hotel_lon": "112.98561879407", "hotel_facility": ["公共区域免费WIFI"], "hotel_id": "1225357", "hotel_judgement": "404", "hotel_address": "芙蓉区解放西路97号，IFS国金中心。 ", "hotel_price": "446", "hotel_lat": "28.196810324131", "hotel_point": "4.8", "hotel_label": ["考场周边", "商务出行"], "hotel_name": "桔子精选酒店(长沙黄兴路步行街店)"},
{"hotel_img": "//dimg11.c-ctrip.com/images/hotel/394000/393334/367440580fdd4c27b66e5ebbd7bd459b_R_170_170.jpg", "hotel_lon": "112.94120260755", "hotel_facility": ["公共区域免费WIFI", "停车场", "餐厅", "会议室"], "hotel_id": "468658", "hotel_judgement": "3042", "hotel_address": "岳麓区岳麓大道311号，近市委市政府。 ", "hotel_price": "377", "hotel_lat": "28.231358186576", "hotel_point": "4.5", "hotel_label": ["考场周边", "休闲度假", "浪漫情侣"], "hotel_name": "湖南金麓国际大酒店"},
{"hotel_img": "//dimg10.c-ctrip.com/images/hotel/79000/78455/1CB6DCB5-A2A4-42EC-83D6-F430B23C1D5B_R_170_170.jpg", "hotel_lon": "112.99938973566", "hotel_facility": ["公共区域WIFI", "停车场", "餐厅", "健身房", "会议室"], "hotel_id": "1487554", "hotel_judgement": "2577", "hotel_address": "雨花区劳动西路528号，和韶山北路交汇处。 ", "hotel_price": "296", "hotel_lat": "28.174614989761", "hotel_point": "4.5", "hotel_label": ["考场周边", "休闲度假", "浪漫情侣"], "hotel_name": "湖南大华宾馆"},
{"hotel_img": "//dimg13.c-ctrip.com/images/200d0r000000gqh5fE007_R_170_170.jpg", "hotel_lon": "112.9768", "hotel_facility": ["停车场"], "hotel_id": "9011878", "hotel_judgement": "396", "hotel_address": "天心区湘江中路二段35号，湘江中路与坡子街交汇处谭王府火锅斜对面。 ", "hotel_price": "312", "hotel_lat": "28.196207", "hotel_point": "4.8", "hotel_label": ["考场周边", "宠物友好"], "hotel_name": "长沙YUhotel华远国际公寓"},
{"hotel_img": "//dimg13.c-ctrip.com/images/200f060000001euzmAF62_R_170_170.jpg", "hotel_lon": "112.99531506105", "hotel_facility": ["公共区域免费WIFI", "停车场", "餐厅", "会议室"], "hotel_id": "790259", "hotel_judgement": "3180", "hotel_address": "开福区营盘东路19号，（省展览馆内），近烈士公园、长沙市一中、博物馆。 ", "hotel_price": "296", "hotel_lat": "28.210818148133", "hotel_point": "4.5", "hotel_label": ["考场周边", "休闲度假", "浪漫情侣"], "hotel_name": "长沙西雅三和大酒店"},
{"hotel_img": "//dimg11.c-ctrip.com/images/fd/hotel/g4/M04/95/58/CggYHFYLGeeAZu4LAAHZyj3bHrM889_R_170_170.jpg", "hotel_lon": "113.04258608757", "hotel_facility": ["公共区域免费WIFI", "停车场", "餐厅", "会议室"], "hotel_id": "1000586", "hotel_judgement": "1845", "hotel_address": "开福区万家丽北路二段338号，近湖南广电、世界之窗、海底世界。 ", "hotel_price": "322", "hotel_lat": "28.232694999142", "hotel_point": "4.3", "hotel_label": ["休闲度假", "浪漫情侣", "商务出行"], "hotel_name": "长沙金雅国际酒店"},
{"hotel_img": "//dimg10.c-ctrip.com/images/200p0n000000e6avm7D7E_R_170_170.jpg", "hotel_lon": "112.98413536648", "hotel_facility": ["公共区域免费WIFI", "餐厅"], "hotel_id": "4378603", "hotel_judgement": "1947", "hotel_address": "中山路168号南洋大厦（青少年宫旁），中山路与黄兴路交接中山亭。 ", "hotel_price": "278", "hotel_lat": "28.206116964782", "hotel_point": "4.5", "hotel_label": ["考场周边", "浪漫情侣", "商务出行"], "hotel_name": "玖麓枫临酒店(长沙五一广场地铁站店)"},
{"hotel_img": "//dimg13.c-ctrip.com/images/200o070000002ll0w7E7E_R_170_170.jpg", "hotel_lon": "112.99455800978", "hotel_facility": ["停车场", "餐厅", "会议室"], "hotel_id": "1609988", "hotel_judgement": "1130", "hotel_address": "芙蓉区白沙路26号东成大厦，近新华书店。 ", "hotel_price": "178", "hotel_lat": "28.195044715505", "hotel_point": "4.4", "hotel_label": ["考场周边", "休闲度假", "浪漫情侣"], "hotel_name": "长沙华维·东成酒店"},
{"hotel_img": "//dimg11.c-ctrip.com/images/200e050000000q2uz5525_R_170_170.jpg", "hotel_lon": "113.01477703309", "hotel_facility": ["公共区域免费WIFI", "停车场", "餐厅", "会议室"], "hotel_id": "1747176", "hotel_judgement": "1490", "hotel_address": "开福区四方坪三一大道与车站路交汇处东北角406号，近国防科大,湖南广电中心,国际会展中心。 ", "hotel_price": "509", "hotel_lat": "28.238102796022", "hotel_point": "4.7", "hotel_label": ["浪漫情侣", "商务出行"], "hotel_name": "长沙延年世纪酒店"},
{"hotel_img": "//dimg11.c-ctrip.com/images/hotel/692000/691890/0351e2d439014249adf20f16708d2e79_R_170_170.jpg", "hotel_lon": "112.94816513531", "hotel_facility": ["公共区域免费WIFI", "停车场", "餐厅", "会议室"], "hotel_id": "842515", "hotel_judgement": "1395", "hotel_address": "岳麓区丰顺路与黄鹤路交汇处，近阳光100、中南大学、湖大、师大、岳麓书院。 ", "hotel_price": "338", "hotel_lat": "28.151463230718", "hotel_point": "4.2", "hotel_label": ["休闲度假", "浪漫情侣", "商务出行"], "hotel_name": "长沙福盛源大酒店"},
{"hotel_img": "//dimg11.c-ctrip.com/images/20050h0000008tb5o7988_R_170_170.jpg", "hotel_lon": "113.04137", "hotel_facility": ["公共区域免费WIFI", "餐厅"], "hotel_id": "8394651", "hotel_judgement": "246", "hotel_address": "雨花区万家丽中路喜盈门范城A座15楼（北京银行），近香樟路与万家丽路交汇处西南角（大夏面向市民广场）。 ", "hotel_price": "271", "hotel_lat": "28.140564", "hotel_point": "4.6", "hotel_label": ["考场周边"], "hotel_name": "长沙金湘玺酒店"},
{"hotel_img": "//dimg11.c-ctrip.com/images/20090b0000005k9bfD6CB_R_170_170.jpg", "hotel_lon": "112.984872", "hotel_facility": [], "hotel_id": "6391577", "hotel_judgement": "968", "hotel_address": "芙蓉区五一广场壹号公馆，近6.7号地铁口。 ", "hotel_price": "188", "hotel_lat": "28.202111", "hotel_point": "4.9", "hotel_label": ["考场周边"], "hotel_name": "长沙仕家五一广场店"},
{"hotel_img": "//dimg11.c-ctrip.com/images/200e0m000000dprmiA9CB_R_170_170.jpg", "hotel_lon": "112.982187081669", "hotel_facility": [], "hotel_id": "8024273", "hotel_judgement": "287", "hotel_address": "天心区五一大道锦绣中环30楼办理入住，近黄兴中路 地铁1,2号线1号口。步行街，平和堂，王府井，国金中心，九龙仓，橘子洲，岳麓山，太平街。。 ", "hotel_price": "128", "hotel_lat": "28.2004086733868", "hotel_point": "4.6", "hotel_label": ["考场周边"], "hotel_name": "长沙花季主题公寓酒店(五一广场地铁站店)"},
{"hotel_img": "//dimg11.c-ctrip.com/images/fd/hotel/g3/M0A/EA/79/CggYGVXaZ_CAEHbkAAT_OW0z3sE952_R_170_170.jpg", "hotel_lon": "112.958739", "hotel_facility": ["公共区域免费WIFI"], "hotel_id": "1607889", "hotel_judgement": "1181", "hotel_address": "岳麓区银杉路31号绿地中央广场7栋21楼，奥克斯广场对面。 ", "hotel_price": "148", "hotel_lat": "28.233158", "hotel_point": "4.3", "hotel_label": ["考场周边", "商务出行", "宠物友好"], "hotel_name": "长沙斯维登服务公寓(中央广场店)"},
{"hotel_img": "//dimg13.c-ctrip.com/images/fd/hotel/g4/M04/8A/25/CggYHVXpTUeARy9FAAR5tyyx81E126_R_170_170.jpg", "hotel_lon": "112.99338997687", "hotel_facility": ["停车场", "会议室"], "hotel_id": "992517", "hotel_judgement": "1797", "hotel_address": "雨花区芙蓉中路二段193号（原长信大酒店），近贺龙体育中心。 ", "hotel_price": "303", "hotel_lat": "28.188446661096", "hotel_point": "4.6", "hotel_label": ["考场周边", "商务出行"], "hotel_name": "全季酒店(长沙芙蓉中路店)"},
{"hotel_img": "//dimg11.c-ctrip.com/images/hotel/668000/667876/e5587a8bd9cf40a180217d26acba53c3_R_170_170.jpg", "hotel_lon": "113.04374778936", "hotel_facility": ["餐厅"], "hotel_id": "828038", "hotel_judgement": "919", "hotel_address": "雨花区万家丽中路三段168号，近美洲故事、雨花区政府。 ", "hotel_price": "216", "hotel_lat": "28.127261826283", "hotel_point": "4.3", "hotel_label": ["考场周边", "浪漫情侣"], "hotel_name": "长沙新怡园酒店"},
{"hotel_img": "//dimg13.c-ctrip.com/images/hotel/50000/49039/F395C77E-DA9E-4E36-B92E-BB9BF7178174_R_170_170.jpg", "hotel_lon": "113.016615", "hotel_facility": ["公共区域免费WIFI", "停车场", "会议室"], "hotel_id": "1183114", "hotel_judgement": "1346", "hotel_address": "雨花区中意一路183号，湖南女子大学对面。 ", "hotel_price": "198", "hotel_lat": "28.123698", "hotel_point": "4.6", "hotel_label": ["考场周边", "浪漫情侣", "商务出行"], "hotel_name": "长沙延年商务酒店"},
{"hotel_img": "//dimg11.c-ctrip.com/images/200u0400000009n7339AF_R_170_170.jpg", "hotel_lon": "112.99538316552", "hotel_facility": ["公共区域WIFI", "停车场", "餐厅", "会议室"], "hotel_id": "2035887", "hotel_judgement": "641", "hotel_address": "芙蓉区五一大道618号，近芙蓉广场。 ", "hotel_price": "338", "hotel_lat": "28.201149336656", "hotel_point": "4.3", "hotel_label": ["考场周边", "商务出行"], "hotel_name": "长沙银华大酒店"},
{"hotel_img": "//dimg10.c-ctrip.com/images/200q0s000000hq5ui1E51_R_170_170.jpg", "hotel_lon": "113.015483", "hotel_facility": ["公共区域免费WIFI", "停车场", "餐厅", "会议室"], "hotel_id": "5312414", "hotel_judgement": "140", "hotel_address": "雨花区劳动中路491号中邦国际，近胃康医院。 ", "hotel_price": "237", "hotel_lat": "28.162366", "hotel_point": "4.4", "hotel_label": ["考场周边", "浪漫情侣", "商务出行"], "hotel_name": "长沙中邦顺瑞豪廷大酒店"},
{"hotel_img": "//dimg11.c-ctrip.com/images/200v0s000000hy60118ED_R_170_170.jpg", "hotel_lon": "113.0537985449", "hotel_facility": ["公共区域免费WIFI", "停车场", "餐厅", "会议室"], "hotel_id": "791689", "hotel_judgement": "1806", "hotel_address": "雨花区沙湾路89号国中星城3栋，与劳动东路交叉口。 ", "hotel_price": "233", "hotel_lat": "28.160644772237", "hotel_point": "4.2", "hotel_label": ["考场周边", "浪漫情侣", "商务出行"], "hotel_name": "长沙圣威思酒店(原齐缘酒店)"},
{"hotel_img": "//dimg10.c-ctrip.com/images/200p0f000000791gpB9A4_R_170_170.jpg", "hotel_lon": "112.978416", "hotel_facility": ["公共区域免费WIFI", "停车场", "餐厅", "接机服务", "游泳池", "健身房"], "hotel_id": "386624", "hotel_judgement": "7811", "hotel_address": "开福区湘江中路308号，近中山路。 ", "hotel_price": "957", "hotel_lat": "28.205977", "hotel_point": "4.7", "hotel_label": ["考场周边", "休闲度假", "浪漫情侣"], "hotel_name": "长沙万达文华酒店"},
{"hotel_img": "//dimg11.c-ctrip.com/images/200i0p000000fmo4jF42D_R_170_170.jpg", "hotel_lon": "112.98495255855", "hotel_facility": ["公共区域免费WIFI", "停车场", "餐厅", "接机服务", "游泳池", "健身房"], "hotel_id": "1373631", "hotel_judgement": "2419", "hotel_address": "开福区湘江北路三段1500号，近北辰三角洲。 ", "hotel_price": "1596", "hotel_lat": "28.244947615735", "hotel_point": "4.7", "hotel_label": ["休闲度假", "浪漫情侣", "商务出行"], "hotel_name": "长沙北辰洲际酒店"},
{"hotel_img": "//dimg12.c-ctrip.com/images/hotel/15000/14079/3b59fd94e22d48f9aef87fd532da2811_R_170_170.jpg", "hotel_lon": "112.99316978068", "hotel_facility": ["公共区域免费WIFI", "停车场", "餐厅", "接机服务", "会议室"], "hotel_id": "471147", "hotel_judgement": "7387", "hotel_address": "雨花区芙蓉中路二段279号，贺龙体育馆正对面（演唱会主入口），地铁1号线侯家塘站，离步行街1公里、离橘子洲2公里。。 ", "hotel_price": "316", "hotel_lat": "28.183639702252", "hotel_point": "4.6", "hotel_label": ["考场周边", "休闲度假", "浪漫情侣"], "hotel_name": "长沙金源阳光酒店(原金源大酒店)"},
{"hotel_img": "//dimg10.c-ctrip.com/images/200v070000002pph70C50_R_170_170.jpg", "hotel_lon": "112.9878119729", "hotel_facility": ["公共区域免费WIFI", "停车场", "餐厅", "接机服务", "游泳池", "会议室"], "hotel_id": "533308", "hotel_judgement": "6783", "hotel_address": "开福区金泰路199号，和金马路交汇处。 ", "hotel_price": "658", "hotel_lat": "28.252417843134", "hotel_point": "4.8", "hotel_label": ["休闲度假", "浪漫情侣", "商务出行"], "hotel_name": "长沙世纪金源大饭店"},
{"hotel_img": "//dimg11.c-ctrip.com/images/200q0q000000gcl1y6C13_R_170_170.jpg", "hotel_lon": "112.97717", "hotel_facility": ["公共区域免费WIFI", "停车场", "餐厅", "接机服务", "健身房", "会议室"], "hotel_id": "14423410", "hotel_judgement": "269", "hotel_address": "天心区解放西路420号，近湘江中路。 ", "hotel_price": "229", "hotel_lat": "28.198002", "hotel_point": "4.6", "hotel_label": ["考场周边"], "hotel_name": "长沙芙蓉瑜舍酒店"},
{"hotel_img": "//dimg12.c-ctrip.com/images/t1/hotel/1199000/1198202/09e6354982694eff9788d34441eb3452_R_170_170.jpg", "hotel_lon": "112.93870850152", "hotel_facility": ["公共区域免费WIFI", "停车场", "餐厅", "接机服务", "游泳池", "健身房"], "hotel_id": "1198201", "hotel_judgement": "2222", "hotel_address": "岳麓区金星中路247号，近咸嘉湖西路。 ", "hotel_price": "345", "hotel_lat": "28.218118119948", "hotel_point": "4.7", "hotel_label": ["考场周边", "休闲度假", "浪漫情侣"], "hotel_name": "湖南佳兴世尊酒店"},
{"hotel_img": "//dimg12.c-ctrip.com/images/200c0s000000ho73zAA32_R_170_170.jpg", "hotel_lon": "112.90051881152", "hotel_facility": ["公共区域免费WIFI", "停车场", "餐厅", "会议室"], "hotel_id": "4311742", "hotel_judgement": "925", "hotel_address": "岳麓区枫林三路398号，梅溪湖、金茂广场，距地铁站--文化艺术中心站步行7分钟 临近湖南大学，涉外经济学院等高等院校。 ", "hotel_price": "387", "hotel_lat": "28.209581874089", "hotel_point": "4.6", "hotel_label": ["考场周边", "商务出行"], "hotel_name": "长沙嘉柏酒店"},
{"hotel_img": "//dimg12.c-ctrip.com/images/200h050000000s69xB09F_R_170_170.jpg", "hotel_lon": "112.9922715921", "hotel_facility": ["公共区域免费WIFI", "停车场", "餐厅", "游泳池", "健身房", "会议室"], "hotel_id": "430293", "hotel_judgement": "2648", "hotel_address": "开福区芙蓉中路一段478号运达国际广场，近营盘路。 ", "hotel_price": "938", "hotel_lat": "28.209046841133", "hotel_point": "4.6", "hotel_label": ["考场周边", "休闲度假", "浪漫情侣"], "hotel_name": "长沙运达喜来登酒店"},
{"hotel_img": "//dimg13.c-ctrip.com/images/200c060000001or7rD1D8_R_170_170.jpg", "hotel_lon": "112.98505585339", "hotel_facility": ["公共区域免费WIFI", "接机服务"], "hotel_id": "3139946", "hotel_judgement": "2437", "hotel_address": "芙蓉区南阳街8号五一广场壹号公馆一楼111号，近五一大道。 ", "hotel_price": "199", "hotel_lat": "28.20223127929", "hotel_point": "4.6", "hotel_label": ["考场周边", "公寓", "浪漫情侣"], "hotel_name": "诺盟国际公寓(长沙芙蓉壹号公馆店)"},
{"hotel_img": "//dimg12.c-ctrip.com/images/20040k000000b4xdf9DDB_R_170_170.jpg", "hotel_lon": "113.00473789029", "hotel_facility": ["公共区域免费WIFI", "停车场", "餐厅", "会议室"], "hotel_id": "669943", "hotel_judgement": "2585", "hotel_address": "芙蓉区八一路298号，湖南省委省。 ", "hotel_price": "378", "hotel_lat": "28.203686961138", "hotel_point": "4.6", "hotel_label": ["考场周边", "休闲度假", "浪漫情侣"], "hotel_name": "长沙雅尊戴斯酒店"},
{"hotel_img": "//dimg11.c-ctrip.com/images/20040j0000009v8l48B1A_R_170_170.jpg", "hotel_lon": "113.014017", "hotel_facility": ["公共区域免费WIFI", "停车场", "餐厅", "健身房", "会议室"], "hotel_id": "9197820", "hotel_judgement": "165", "hotel_address": "雨花区正塘坡路69号，近中意一路中建大厦。 ", "hotel_price": "449", "hotel_lat": "28.124774", "hotel_point": "4.8", "hotel_label": ["考场周边", "商务出行"], "hotel_name": "长沙中建万怡酒店"},
{"hotel_img": "//dimg10.c-ctrip.com/images/200n060000001hfnxE36E_R_170_170.jpg", "hotel_lon": "112.98503878821", "hotel_facility": ["公共区域免费WIFI", "停车场"], "hotel_id": "4956757", "hotel_judgement": "5594", "hotel_address": "芙蓉区五一广场南阳街8号壹号公馆1楼121号，近五一广场地铁站。 ", "hotel_price": "241", "hotel_lat": "28.202172288825", "hotel_point": "4.8", "hotel_label": ["考场周边"], "hotel_name": "香水湾公寓酒店(长沙五一广场壹号公馆店)"},
{"hotel_img": "//dimg12.c-ctrip.com/images/fd/hotel/g4/M07/B0/8A/CggYHVZcxXCAV_gRAAmwm34auNU556_R_170_170.jpg", "hotel_lon": "112.96356043185", "hotel_facility": ["公共区域免费WIFI", "停车场", "餐厅", "会议室"], "hotel_id": "605398", "hotel_judgement": "5162", "hotel_address": "岳麓区岳麓大道36号，银盆南路交汇处,银盆岭大桥西。 ", "hotel_price": "306", "hotel_lat": "28.232182135177", "hotel_point": "4.7", "hotel_label": ["考场周边", "浪漫情侣", "商务出行"], "hotel_name": "长沙延年澜景酒店"},
{"hotel_img": "//dimg12.c-ctrip.com/images/hotel/7000/6181/1ee197c1cb90425094567643a6b1c567_R_170_170.jpg", "hotel_lon": "112.99316534051", "hotel_facility": ["公共区域免费WIFI", "停车场", "餐厅", "接机服务", "游泳池", "健身房"], "hotel_id": "440358", "hotel_judgement": "4066", "hotel_address": "雨花区芙蓉中路三段269号，近黄土岭路。 ", "hotel_price": "487", "hotel_lat": "28.166358824714", "hotel_point": "4.7", "hotel_label": ["考场周边", "浪漫情侣", "商务出行"], "hotel_name": "长沙神农大酒店"},
{"hotel_img": "//dimg11.c-ctrip.com/images/200t0r000000h0q8y5743_R_170_170.jpg", "hotel_lon": "112.982204", "hotel_facility": ["公共区域免费WIFI", "停车场", "接机服务", "健身房"], "hotel_id": "1692023", "hotel_judgement": "452", "hotel_address": "天心区五一大道635号锦绣中环大厦8-9楼，近五一大道。 ", "hotel_price": "226", "hotel_lat": "28.200325", "hotel_point": "4.7", "hotel_label": ["考场周边", "浪漫情侣", "商务出行"], "hotel_name": "美年21度酒店(长沙五一广场店)(原锦程酒店)"},
{"hotel_img": "//dimg12.c-ctrip.com/images/200n0s000000huq9kEC0A_R_170_170.jpg", "hotel_lon": "112.984006", "hotel_facility": ["公共区域免费WIFI", "停车场", "餐厅"], "hotel_id": "15117005", "hotel_judgement": "254", "hotel_address": "芙蓉区东牌楼街57号蚂蚁工房，近IFS国金中心、平和堂、地铁2号线。 ", "hotel_price": "323", "hotel_lat": "28.199006", "hotel_point": "4.7", "hotel_label": ["考场周边", "浪漫情侣"], "hotel_name": "长沙N7酒店"},
{"hotel_img": "//dimg13.c-ctrip.com/images/fd/hotel/g3/M0B/90/07/CggYGlX6dBWAbRm2AAGm0C_JU8g433_R_170_170.jpg", "hotel_lon": "112.99057126938", "hotel_facility": ["公共区域WIFI", "停车场", "餐厅", "健身房", "会议室"], "hotel_id": "512473", "hotel_judgement": "2199", "hotel_address": "天心区城南西路1号（省财政厅院），近芙蓉中路。 ", "hotel_price": "358", "hotel_lat": "28.188114621701", "hotel_point": "4.5", "hotel_label": ["考场周边", "休闲度假", "浪漫情侣"], "hotel_name": "湖南财信国际商务酒店"},
{"hotel_img": "//dimg10.c-ctrip.com/images/20040o000000f5q4sA519_R_170_170.jpg", "hotel_lon": "113.00799759715", "hotel_facility": ["公共区域免费WIFI", "停车场"], "hotel_id": "976718", "hotel_judgement": "107", "hotel_address": "芙蓉区五一大道165号，近曙光路。 ", "hotel_price": "270", "hotel_lat": "28.199902042213", "hotel_point": "4.8", "hotel_label": ["考场周边"], "hotel_name": "如家商旅酒店(长沙火车站袁家岭地铁站店)"},
{"hotel_img": "//dimg10.c-ctrip.com/images/200l0o000000fez7sBDBF_R_170_170.jpg", "hotel_lon": "112.962942", "hotel_facility": ["公共区域免费WIFI", "停车场", "餐厅", "健身房", "会议室"], "hotel_id": "6860344", "hotel_judgement": "499", "hotel_address": "岳麓区含光路与观沙岭路交汇处，近潇湘北路。 ", "hotel_price": "337", "hotel_lat": "28.242916", "hotel_point": "4.6", "hotel_label": ["考场周边", "休闲度假", "商务出行"], "hotel_name": "圣威思酒店(长沙市政府店)"},
{"hotel_img": "//dimg12.c-ctrip.com/images/fd/hotel/g3/M02/A6/76/CggYGVYNFmeAMIX7AAt_nJ9yLxk685_R_170_170.jpg", "hotel_lon": "113.08681365098", "hotel_facility": ["公共区域免费WIFI", "停车场", "餐厅", "接机服务", "游泳池", "健身房"], "hotel_id": "812142", "hotel_judgement": "1347", "hotel_address": "芙蓉区红旗路199号，邻长沙国际会展中心、长沙南火车站、黄花机场、星沙经济技术开发区、湖南卫视、上海大众、广汽菲亚特。 ", "hotel_price": "457", "hotel_lat": "28.200136732001", "hotel_point": "4.6", "hotel_label": ["考场周边", "浪漫情侣", "商务出行"], "hotel_name": "长沙隆华国际酒店"},
{"hotel_img": "//dimg10.c-ctrip.com/images/200p04000000088kuE706_R_170_170.jpg", "hotel_lon": "112.99332276496", "hotel_facility": ["公共区域免费WIFI"], "hotel_id": "994148", "hotel_judgement": "4003", "hotel_address": "芙蓉区建湘南路277号，与解放西路交汇。 ", "hotel_price": "142", "hotel_lat": "28.19801310449", "hotel_point": "4.5", "hotel_label": ["考场周边"], "hotel_name": "如家快捷酒店(长沙建湘路芙蓉广场地铁口店)"},
{"hotel_img": "//dimg10.c-ctrip.com/images/fd/hotel/g3/M08/F7/FE/CggYGlYkWIqAN-OFAAGf-mt6AGI547_R_170_170.jpg", "hotel_lon": "112.96037059543", "hotel_facility": ["公共区域免费WIFI", "停车场", "接机服务"], "hotel_id": "1505548", "hotel_judgement": "1275", "hotel_address": "岳麓区岳麓大道奥克斯广场一栋57号，近银盆南路。 ", "hotel_price": "227", "hotel_lat": "28.230804087403", "hotel_point": "4.5", "hotel_label": ["考场周边", "浪漫情侣"], "hotel_name": "万吉时代酒店(长沙奥克斯广场店)"},
{"hotel_img": "//dimg11.c-ctrip.com/images/20040q000000g3guq2A5C_R_170_170.jpg", "hotel_lon": "113.030885", "hotel_facility": ["公共区域免费WIFI", "停车场", "健身房"], "hotel_id": "6743442", "hotel_judgement": "46", "hotel_address": "雨花区湘府东路258号双塔国际广场A幢。 ", "hotel_price": "308", "hotel_lat": "28.117657", "hotel_point": "4.6", "hotel_label": [], "hotel_name": "长沙双塔美居酒店"},
{"hotel_img": "//dimg11.c-ctrip.com/images/20040k000000cade3F42D_R_170_170.jpg", "hotel_lon": "112.98500884656", "hotel_facility": ["公共区域免费WIFI", "停车场"], "hotel_id": "2695488", "hotel_judgement": "4114", "hotel_address": "芙蓉区南阳街8号，近五一广场。 ", "hotel_price": "179", "hotel_lat": "28.202241349479", "hotel_point": "4.8", "hotel_label": ["考场周边"], "hotel_name": "威廷酒店公寓(长沙壹号公馆店)"},
{"hotel_img": "//dimg12.c-ctrip.com/images/200q060000001rp02642D_R_170_170.jpg", "hotel_lon": "112.99433421496", "hotel_facility": ["公共区域免费WIFI", "停车场", "餐厅", "会议室"], "hotel_id": "4122417", "hotel_judgement": "12335", "hotel_address": "芙蓉区白沙路61号，近芙蓉中路。 ", "hotel_price": "178", "hotel_lat": "28.193632833211", "hotel_point": "4.9", "hotel_label": ["考场周边", "宠物友好"], "hotel_name": "Q+慧友美宿酒店(长沙芙蓉广场店)"},
{"hotel_img": "//dimg12.c-ctrip.com/images/200s0k000000byqg06177_R_170_170.jpg", "hotel_lon": "112.985045", "hotel_facility": ["停车场"], "hotel_id": "6258268", "hotel_judgement": "458", "hotel_address": "芙蓉区南阳街8号壹号公馆21层2110房，近五一广场、地铁站7号出口。 ", "hotel_price": "231", "hotel_lat": "28.202221", "hotel_point": "4.8", "hotel_label": ["考场周边"], "hotel_name": "今至公寓酒店（长沙五一广场壹号公馆店）"},
{"hotel_img": "//dimg10.c-ctrip.com/images/fd/hotel/g1/M04/AC/24/CghzfFW7EgqAdNxtAAUaHvxBC-8973_R_170_170.jpg", "hotel_lon": "113.00042757265", "hotel_facility": ["公共区域免费WIFI", "停车场", "餐厅", "会议室"], "hotel_id": "479229", "hotel_judgement": "1833", "hotel_address": "芙蓉区八一中路383号，近湖南省委(省军区正对面，近烈士公园南门，近地铁2号线迎宾路口)。 ", "hotel_price": "332", "hotel_lat": "28.203095844274", "hotel_point": "4.5", "hotel_label": ["考场周边", "休闲度假", "浪漫情侣"], "hotel_name": "长沙新高原红酒店"},
{"hotel_img": "//dimg13.c-ctrip.com/images/200e0f0000007dgxk17FA_R_170_170.jpg", "hotel_lon": "112.991894", "hotel_facility": ["公共区域免费WIFI", "停车场"], "hotel_id": "5717840", "hotel_judgement": "755", "hotel_address": "开福区芙蓉中路一段518号芙蓉城，近地铁2号线4号出口、八一桥。 ", "hotel_price": "118", "hotel_lat": "28.204984", "hotel_point": "4.4", "hotel_label": ["考场周边"], "hotel_name": "早安旅居酒店(长沙芙蓉广场店)"},
{"hotel_img": "//dimg13.c-ctrip.com/images/200n0n000000e3xbtE066_R_170_170.jpg", "hotel_lon": "112.987066", "hotel_facility": ["公共区域免费WIFI"], "hotel_id": "6638464", "hotel_judgement": "1301", "hotel_address": "芙蓉区五一大道与蔡锷中路交汇处五一钻界24楼，靠近五一广场与芙蓉广场中间，步行街附近，在蔡锷中路与五一大道西北角交汇处。 ", "hotel_price": "180", "hotel_lat": "28.202797", "hotel_point": "4.7", "hotel_label": ["考场周边", "公寓", "浪漫情侣"], "hotel_name": "云居假日酒店公寓(长沙五一广场店)"},
{"hotel_img": "//dimg10.c-ctrip.com/images/200d0q000000g6qe6B28D_R_170_170.jpg", "hotel_lon": "112.986254", "hotel_facility": ["公共区域免费WIFI", "停车场"], "hotel_id": "16113804", "hotel_judgement": "73", "hotel_address": "天心区新姚南路198号华天苑11栋，省政府，地铁站，汽车南站，芙蓉南路。 ", "hotel_price": "286", "hotel_lat": "28.109419", "hotel_point": "4.9", "hotel_label": ["考场周边"], "hotel_name": "莫林酒店(湖南省政府店)"},
{"hotel_img": "//dimg10.c-ctrip.com/images/200d0q000000glfle05BB_R_170_170.jpg", "hotel_lon": "112.984924", "hotel_facility": ["公共区域免费WIFI", "停车场", "餐厅", "健身房", "会议室"], "hotel_id": "13787504", "hotel_judgement": "120", "hotel_address": "天心区赤岭路219号旭和大厦106-2号门面，近长沙理工大学城南学院。 ", "hotel_price": "218", "hotel_lat": "28.157549", "hotel_point": "4.5", "hotel_label": ["考场周边"], "hotel_name": "圣威思酒店(长沙理工大学店)"},
{"hotel_img": "//dimg12.c-ctrip.com/images/200j0p000000fxqyi8087_R_170_170.jpg", "hotel_lon": "112.98748511761", "hotel_facility": ["公共区域免费WIFI", "停车场", "餐厅", "会议室"], "hotel_id": "1932612", "hotel_judgement": "1058", "hotel_address": "开福区湘春路111号，近湖南省妇幼、湘雅一医院、、省博物馆、烈士公园、橘子洲头、泊富广场、地铁1号线。 ", "hotel_price": "268", "hotel_lat": "28.214415570042", "hotel_point": "4.5", "hotel_label": ["考场周边", "浪漫情侣", "商务出行"], "hotel_name": "湖南陋园宾馆"},
{"hotel_img": "//dimg10.c-ctrip.com/images/hotel/15000/14126/c115ebd72904469cb6c3367dc8b7488d_R_170_170.jpg", "hotel_lon": "113.00766977573", "hotel_facility": ["公共区域免费WIFI", "停车场", "餐厅", "会议室"], "hotel_id": "1431461", "hotel_judgement": "956", "hotel_address": "雨花区曙光中路248号，近长沙中级人民法院。 ", "hotel_price": "180", "hotel_lat": "28.179758751459", "hotel_point": "4.4", "hotel_label": ["考场周边", "商务出行"], "hotel_name": "湖南金叶神农大酒店"},
{"hotel_img": "//dimg11.c-ctrip.com/images/200v0q000000gs7fc9241_R_170_170.jpg", "hotel_lon": "112.993913", "hotel_facility": ["公共区域免费WIFI"], "hotel_id": "15999341", "hotel_judgement": "180", "hotel_address": "雨花区人民中路32号雨花大厦2-3，近天心阁公园、贺龙体育馆、五一广场、芙蓉广场、维也纳人民路店、同发大厦、雨花大厦、工商银行。 ", "hotel_price": "284", "hotel_lat": "28.190708", "hotel_point": "4.7", "hotel_label": ["考场周边"], "hotel_name": "未尔酒店·醉长沙（芙蓉广场人民中路店）"},
{"hotel_img": "//dimg12.c-ctrip.com/images/200w0n000000ejer28654_R_170_170.jpg", "hotel_lon": "112.993419", "hotel_facility": ["公共区域免费WIFI", "停车场", "会议室"], "hotel_id": "662780", "hotel_judgement": "4833", "hotel_address": "芙蓉区芙蓉中路1段613号，（地铁2号线芙蓉广场站4号出口对面八一桥咖啡之翼后)。 ", "hotel_price": "223", "hotel_lat": "28.203007", "hotel_point": "4.6", "hotel_label": ["考场周边", "浪漫情侣", "商务出行"], "hotel_name": "长沙顽酒店（ 原长沙STARRY星栈·顽酒店）"},
{"hotel_img": "//dimg12.c-ctrip.com/images/200a0i0000009gdjg8D49_R_170_170.jpg", "hotel_lon": "112.983019", "hotel_facility": [], "hotel_id": "8372866", "hotel_judgement": "2314", "hotel_address": "天心区黄兴路296号，近长郡中学、海信广场、IFS国金中心、国金街。 ", "hotel_price": "239", "hotel_lat": "28.192159", "hotel_point": "4.8", "hotel_label": ["考场周边", "浪漫情侣"], "hotel_name": "慧友美宿酒店(长沙步行街黄兴广场地铁站店)"},
{"hotel_img": "//dimg13.c-ctrip.com/images/200b0400000005foiC4A8_R_170_170.jpg", "hotel_lon": "112.93581286647", "hotel_facility": ["公共区域WIFI", "停车场", "餐厅", "会议室"], "hotel_id": "2217597", "hotel_judgement": "1417", "hotel_address": "岳麓区枫林一路与金星南路交汇处，金星路地铁站出口旁。 ", "hotel_price": "269", "hotel_lat": "28.210741834499", "hotel_point": "4.3", "hotel_label": ["考场周边", "浪漫情侣", "商务出行"], "hotel_name": "长沙华文香枫酒店"},
{"hotel_img": "//dimg11.c-ctrip.com/images/200g0b0000005wcu77A34_R_170_170.jpg", "hotel_lon": "112.976966", "hotel_facility": ["公共区域WIFI", "停车场"], "hotel_id": "6471296", "hotel_judgement": "438", "hotel_address": "五一广场湘江中路二段36号华远国际公寓，近坡子街。 ", "hotel_price": "314", "hotel_lat": "28.196406", "hotel_point": "4.7", "hotel_label": ["考场周边", "宠物友好"], "hotel_name": "七悦臻品酒店(长沙五一广场店)"},
{"hotel_img": "//dimg13.c-ctrip.com/images/200n0n000000e40a61763_R_170_170.jpg", "hotel_lon": "113.051183", "hotel_facility": ["公共区域免费WIFI", "停车场", "餐厅", "会议室"], "hotel_id": "6902802", "hotel_judgement": "342", "hotel_address": "雨花区时代阳光大道459号，近圭白路。 ", "hotel_price": "299", "hotel_lat": "28.103561", "hotel_point": "4.7", "hotel_label": ["考场周边", "商务出行"], "hotel_name": "长沙时代华天大酒店"},
{"hotel_img": "//dimg12.c-ctrip.com/images/200p0f0000007djl88F41_R_170_170.jpg", "hotel_lon": "112.976893", "hotel_facility": ["公共区域免费WIFI", "餐厅"], "hotel_id": "6418432", "hotel_judgement": "800", "hotel_address": "天心区湘江中路入坡子街50米海信广场华远国际公寓，近五一广场，坡子街，步行街。 ", "hotel_price": "338", "hotel_lat": "28.196361", "hotel_point": "4.5", "hotel_label": ["考场周边", "宠物友好"], "hotel_name": "长沙华尔曼酒店"},
{"hotel_img": "//dimg11.c-ctrip.com/images/200n0o000000f4rtjCD38_R_170_170.jpg", "hotel_lon": "113.001096", "hotel_facility": ["停车场", "接机服务"], "hotel_id": "14587125", "hotel_judgement": "173", "hotel_address": "开福区浏阳河街道福元西路148号万科金mall坊9-10层，近河马公园。 ", "hotel_price": "225", "hotel_lat": "28.256992", "hotel_point": "4.8", "hotel_label": ["浪漫情侣", "商务出行"], "hotel_name": "麗枫酒店(长沙福元西路万科城店)"},
{"hotel_img": "//dimg13.c-ctrip.com/images/fd/hotel/g6/M0B/7C/57/CggYslc1q2iALfkgAALWQxci3DQ568_R_170_170.jpg", "hotel_lon": "112.99284233232", "hotel_facility": ["公共区域免费WIFI", "停车场", "餐厅", "会议室"], "hotel_id": "1314872", "hotel_judgement": "2024", "hotel_address": "天心区芙蓉中路二段116号，近人民中路。 ", "hotel_price": "240", "hotel_lat": "28.190708761184", "hotel_point": "4.5", "hotel_label": ["考场周边", "浪漫情侣", "商务出行"], "hotel_name": "湖南同发大酒店"},
{"hotel_img": "//dimg13.c-ctrip.com/images/200k0q000000gcgml9A81_R_170_170.jpg", "hotel_lon": "113.012397", "hotel_facility": ["公共区域免费WIFI", "停车场", "会议室"], "hotel_id": "16079973", "hotel_judgement": "169", "hotel_address": "芙蓉区五一大道59号长沙大厦南栋（金色华庭），五一路与朝阳路交汇处（距地铁火车站2号出口300米）。 ", "hotel_price": "229", "hotel_lat": "28.199597", "hotel_point": "4.8", "hotel_label": ["考场周边", "宠物友好"], "hotel_name": "长沙里橙酒店"},
{"hotel_img": "//dimg11.c-ctrip.com/images/fd/hotel/g6/M0B/44/BA/CggYs1cVP7uAaoD5AAomxV-Dw-8057_R_170_170.jpg", "hotel_lon": "113.00747561539", "hotel_facility": ["公共区域免费WIFI", "停车场", "会议室"], "hotel_id": "4638355", "hotel_judgement": "2175", "hotel_address": "雨花区砂子塘路205号，近长沙卷烟厂/中医药大学第一附属医院。 ", "hotel_price": "241", "hotel_lat": "28.168312918945", "hotel_point": "4.8", "hotel_label": ["考场周边", "浪漫情侣", "商务出行"], "hotel_name": "麗枫酒店(长沙东塘店)(原蓝喆丽枫酒店)"},
{"hotel_img": "//dimg12.c-ctrip.com/images/200p0q000000ghqkr8A7F_R_170_170.jpg", "hotel_lon": "112.980645646008", "hotel_facility": ["公共区域WIFI", "停车场"], "hotel_id": "13413089", "hotel_judgement": "88", "hotel_address": "天心区五一西路三泰街24号景江东方西门1104。 ", "hotel_price": "234", "hotel_lat": "28.2008060654516", "hotel_point": "4.9", "hotel_label": ["考场周边"], "hotel_name": "长沙s云酒店五一广场地铁站店"},
{"hotel_img": "//dimg13.c-ctrip.com/images/20050r000000hdzrpE906_R_170_170.jpg", "hotel_lon": "112.979486", "hotel_facility": ["公共区域免费WIFI", "停车场", "餐厅", "接机服务"], "hotel_id": "14418774", "hotel_judgement": "193", "hotel_address": "天心区书院路518号，工商银行书院路支行隔壁。 ", "hotel_price": "264", "hotel_lat": "28.187003", "hotel_point": "4.9", "hotel_label": ["考场周边"], "hotel_name": "慧友美宿酒店(长沙步行街南门口地铁站一店)"},
{"hotel_img": "//dimg10.c-ctrip.com/images/200u0d0000006uxwjEC58_R_170_170.jpg", "hotel_lon": "112.988232", "hotel_facility": ["公共区域免费WIFI", "停车场"], "hotel_id": "6615302", "hotel_judgement": "1274", "hotel_address": "天心区城南西路33号，天心阁景区对面。 ", "hotel_price": "266", "hotel_lat": "28.188669", "hotel_point": "4.7", "hotel_label": ["考场周边", "浪漫情侣", "商务出行"], "hotel_name": "麗枫酒店(长沙步行街南门口地铁站店)"},
{"hotel_img": "//dimg10.c-ctrip.com/images/200s0q000000ggecy32FF_R_170_170.jpg", "hotel_lon": "113.031141", "hotel_facility": ["公共区域免费WIFI", "停车场", "会议室"], "hotel_id": "5247077", "hotel_judgement": "785", "hotel_address": "雨花区树木岭路雨花公安分局斜对面，近曲塘路，五江天街，树木岭，高铁南站。 ", "hotel_price": "97", "hotel_lat": "28.152585", "hotel_point": "4.4", "hotel_label": ["考场周边"], "hotel_name": "睿士格调酒店(长沙火车南站树木岭店)"},
{"hotel_img": "//dimg10.c-ctrip.com/images/200r0f0000007dhgm6D2E_R_170_170.jpg", "hotel_lon": "113.02940150519", "hotel_facility": ["公共区域免费WIFI", "停车场", "餐厅", "会议室"], "hotel_id": "1547533", "hotel_judgement": "761", "hotel_address": "雨花区长沙大道206号，近高桥大市场南大门、马王堆路。 ", "hotel_price": "236", "hotel_lat": "28.175763188458", "hotel_point": "4.5", "hotel_label": ["考场周边", "商务出行"], "hotel_name": "金领商务酒店(长沙高桥店)"},
{"hotel_img": "//dimg10.c-ctrip.com/images/200p0q000000g1t3aD9B2_R_170_170.jpg", "hotel_lon": "112.95767595064", "hotel_facility": [], "hotel_id": "1781817", "hotel_judgement": "1159", "hotel_address": "岳麓区麓山路33号，市第四医院正对面。 ", "hotel_price": "168", "hotel_lat": "28.199705568355", "hotel_point": "4.6", "hotel_label": ["考场周边"], "hotel_name": "7天连锁酒店(长沙岳麓山溁湾镇地铁站店)"},
{"hotel_img": "//dimg12.c-ctrip.com/images/200m0o000000f9p7n2CA2_R_170_170.jpg", "hotel_lon": "112.99214", "hotel_facility": ["公共区域免费WIFI", "停车场", "游泳池", "健身房"], "hotel_id": "11088305", "hotel_judgement": "350", "hotel_address": "天心区芙蓉中路与人民路交汇处众东国际，近天心阁，定王台，供水大厦。 ", "hotel_price": "181", "hotel_lat": "28.191266", "hotel_point": "4.6", "hotel_label": ["考场周边", "商务出行", "宠物友好"], "hotel_name": "长沙高登悦居国际服务式公寓"},
{"hotel_img": "//dimg11.c-ctrip.com/images/2003070000002p3laBC20_R_170_170.jpg", "hotel_lon": "112.979526", "hotel_facility": ["公共区域免费WIFI", "停车场", "餐厅"], "hotel_id": "3030463", "hotel_judgement": "628", "hotel_address": "天心区新开铺路1388号，近芙蓉南路。 ", "hotel_price": "198", "hotel_lat": "28.090217", "hotel_point": "4.3", "hotel_label": ["浪漫情侣"], "hotel_name": "长沙铂菲曼酒店"},
{"hotel_img": "//dimg10.c-ctrip.com/images/200w0f0000007lgit820D_R_170_170.jpg", "hotel_lon": "113.014699", "hotel_facility": ["公共区域免费WIFI", "停车场", "餐厅", "接机服务", "游泳池", "健身房"], "hotel_id": "6809744", "hotel_judgement": "91", "hotel_address": "芙蓉区车站北路兑泽街1号，近烈士公园。 ", "hotel_price": "270", "hotel_lat": "28.220214", "hotel_point": "4.5", "hotel_label": ["考场周边", "商务出行"], "hotel_name": "长沙张家界酒店"},
{"hotel_img": "//dimg11.c-ctrip.com/images/200u0800000036r174D6A_R_170_170.jpg", "hotel_lon": "113.017051", "hotel_facility": ["公共区域免费WIFI", "停车场", "餐厅", "会议室"], "hotel_id": "5893059", "hotel_judgement": "1400", "hotel_address": "芙蓉区车站北路102号武警边防总部队（竹园路口），近长沙火车站、友谊阿波罗商业广场、万象新天。 ", "hotel_price": "217", "hotel_lat": "28.207284", "hotel_point": "4.6", "hotel_label": ["考场周边", "浪漫情侣", "商务出行"], "hotel_name": "安辰酒店(长沙火车站店)"},
{"hotel_img": "//dimg11.c-ctrip.com/images/20060b0000005srq81C48_R_170_170.jpg", "hotel_lon": "113.00713853249", "hotel_facility": ["公共区域WIFI"], "hotel_id": "3798638", "hotel_judgement": "1000", "hotel_address": "雨花区曙光中路298号长房天翼未来城（与桂花路交汇处），近东塘立交桥和桂花公园。 ", "hotel_price": "310", "hotel_lat": "28.177472265748", "hotel_point": "4.5", "hotel_label": ["考场周边", "商务出行"], "hotel_name": "全季酒店(长沙东塘店)"},
{"hotel_img": "//dimg10.c-ctrip.com/images/200n0j000000an2lv7527_R_170_170.jpg", "hotel_lon": "113.040885", "hotel_facility": ["公共区域免费WIFI"], "hotel_id": "8720608", "hotel_judgement": "185", "hotel_address": "雨花区万家丽中路36号喜盈门范城C座5楼，近玉竹路，喜盈门范城，高铁南站、雨花区政府。 ", "hotel_price": "228", "hotel_lat": "28.140344", "hotel_point": "4.9", "hotel_label": ["考场周边"], "hotel_name": "长沙微舍酒店"},
{"hotel_img": "//dimg10.c-ctrip.com/images/200n0p000000flss38DCB_R_170_170.jpg", "hotel_lon": "112.98568186915", "hotel_facility": ["公共区域免费WIFI", "停车场"], "hotel_id": "2986760", "hotel_judgement": "3401", "hotel_address": "东茅街131号，近解放西路。 ", "hotel_price": "152", "hotel_lat": "28.195766035611", "hotel_point": "4.8", "hotel_label": ["考场周边"], "hotel_name": "Q+和锐快捷酒店(长沙步行街店)"},
{"hotel_img": "//dimg13.c-ctrip.com/images/fd/hotel/g3/M09/63/1F/CggYG1az3PKAE3MMAAZWIhLa9Eg359_R_170_170.jpg", "hotel_lon": "112.90255149881", "hotel_facility": ["公共区域免费WIFI", "停车场", "餐厅", "健身房"], "hotel_id": "2921381", "hotel_judgement": "915", "hotel_address": "岳麓区学士路枫华府第商业街，近中医药大学南大门。 ", "hotel_price": "190", "hotel_lat": "28.130944187196", "hotel_point": "4.4", "hotel_label": ["考场周边", "休闲度假", "浪漫情侣"], "hotel_name": "长沙卡斯迪畅享酒店"},
{"hotel_img": "//dimg10.c-ctrip.com/images/200q04000000018v3A8FB_R_170_170.jpg", "hotel_lon": "113.011903", "hotel_facility": ["公共区域免费WIFI", "停车场", "会议室"], "hotel_id": "428740", "hotel_judgement": "6253", "hotel_address": "芙蓉区五一大道77号，近省商务厅。 ", "hotel_price": "151", "hotel_lat": "28.199861", "hotel_point": "4.4", "hotel_label": ["考场周边"], "hotel_name": "莫泰168(长沙火车站地铁站店)"},
{"hotel_img": "//dimg11.c-ctrip.com/images/200t0j000000aczwl3E00_R_170_170.jpg", "hotel_lon": "112.907755", "hotel_facility": ["公共区域免费WIFI", "停车场", "会议室"], "hotel_id": "8649266", "hotel_judgement": "573", "hotel_address": "岳麓区枫林三路268号麓景裕园3栋，近湖南航天医院。 ", "hotel_price": "236", "hotel_lat": "28.213685", "hotel_point": "4.8", "hotel_label": ["考场周边", "浪漫情侣", "商务出行"], "hotel_name": "如家精选酒店(长沙汽车西站麓谷高新园店)(原枫林三路汽车西站店)"},
{"hotel_img": "//dimg13.c-ctrip.com/images/200o0n000000ebadgFBDE_R_170_170.jpg", "hotel_lon": "113.01667031989", "hotel_facility": ["公共区域免费WIFI", "停车场", "餐厅", "接机服务"], "hotel_id": "1635751", "hotel_judgement": "86", "hotel_address": "雨花区车站南路628号，近五一广场。 ", "hotel_price": "193", "hotel_lat": "28.180625675859", "hotel_point": "4.8", "hotel_label": ["考场周边", "商务出行"], "hotel_name": "雅斯特精选酒店(长沙火车站店)"},
{"hotel_img": "//dimg12.c-ctrip.com/images/200a0n000000e92kp1D65_R_170_170.jpg", "hotel_lon": "112.987298", "hotel_facility": ["公共区域免费WIFI"], "hotel_id": "13804365", "hotel_judgement": "155", "hotel_address": "芙蓉区五一大道549号联合商厦5楼，蔡锷中路、IFS国金中心。 ", "hotel_price": "200", "hotel_lat": "28.200148", "hotel_point": "4.7", "hotel_label": ["考场周边"], "hotel_name": "天鹅恋情侣酒店(长沙五一广场店)"},
{"hotel_img": "//dimg13.c-ctrip.com/images/fd/hotel/g4/M05/4F/17/CggYHFZtgwqAFOn3AAQLiBth3sM959_R_170_170.jpg", "hotel_lon": "113.01945195729", "hotel_facility": ["公共区域免费WIFI", "餐厅", "会议室"], "hotel_id": "1451775", "hotel_judgement": "5292", "hotel_address": "芙蓉区车站中路426号，长沙火车站出站口。 ", "hotel_price": "138", "hotel_lat": "28.201133278299", "hotel_point": "4.4", "hotel_label": ["考场周边", "浪漫情侣", "商务出行"], "hotel_name": "长沙万宜怡家酒店"},
{"hotel_img": "//dimg10.c-ctrip.com/images/20080p000000fx47405F2_R_170_170.jpg", "hotel_lon": "113.03169237071", "hotel_facility": ["公共区域免费WIFI", "停车场", "餐厅", "会议室"], "hotel_id": "754074", "hotel_judgement": "918", "hotel_address": "芙蓉区荷花路29号铁通大厦，近中国电信、地铁2号线万家丽广场站6号出口。 ", "hotel_price": "208", "hotel_lat": "28.198111017971", "hotel_point": "4.5", "hotel_label": ["考场周边", "休闲度假", "商务出行"], "hotel_name": "长沙延年铁通酒店(荷花路地铁口店)(原延年铁通酒店)"},
{"hotel_img": "//dimg11.c-ctrip.com/images/hotel/89000/88945/EC06114415424EE68DCE35EF1A07252D_R_170_170.Jpg", "hotel_lon": "113.01668071767", "hotel_facility": ["公共区域免费WIFI", "餐厅"], "hotel_id": "901575", "hotel_judgement": "650", "hotel_address": "芙蓉区八一路10号，与车站北路交汇处。 ", "hotel_price": "180", "hotel_lat": "28.203567650537", "hotel_point": "4.1", "hotel_label": ["考场周边", "浪漫情侣", "商务出行"], "hotel_name": "长沙天佑假日大酒店"},
{"hotel_img": "//dimg11.c-ctrip.com/images/hotel/699000/698475/e8b8e205c3fe4fa89e641249b928b5b6_R_170_170.jpg", "hotel_lon": "112.91213786137", "hotel_facility": ["公共区域免费WIFI", "停车场", "餐厅"], "hotel_id": "1049616", "hotel_judgement": "1103", "hotel_address": "岳麓区枫林三路175号锦绣航天大厦，近麓景路。 ", "hotel_price": "172", "hotel_lat": "28.214180983825", "hotel_point": "4.3", "hotel_label": ["考场周边"], "hotel_name": "城市便捷酒店(长沙汽车西站店)"},
{"hotel_img": "//dimg11.c-ctrip.com/images/200h060000001b2pxF5E2_R_170_170.jpg", "hotel_lon": "113.01055604809", "hotel_facility": ["停车场", "餐厅", "会议室"], "hotel_id": "1504375", "hotel_judgement": "1227", "hotel_address": "雨花区人民中路王公塘16号，与曙光中路交汇。 ", "hotel_price": "158", "hotel_lat": "28.190649516844", "hotel_point": "4.5", "hotel_label": ["考场周边"], "hotel_name": "城市便捷酒店(长沙人民路家润多广场店)(原万豪大酒店)"},
{"hotel_img": "//dimg12.c-ctrip.com/images/200g0o000000f64cr7EED_R_170_170.jpg", "hotel_lon": "112.939821", "hotel_facility": ["公共区域免费WIFI", "停车场"], "hotel_id": "5727910", "hotel_judgement": "332", "hotel_address": "岳麓区金星北路与佑母塘路交汇处钰龙天下二期综合楼二栋（距离长郡双语实验中学200米），近长沙市政府。 ", "hotel_price": "265", "hotel_lat": "28.252153", "hotel_point": "4.8", "hotel_label": ["考场周边", "浪漫情侣"], "hotel_name": "品漫酒店（长沙市政府店）"},
{"hotel_img": "//dimg11.c-ctrip.com/images/200h0s000000hwvl25D75_R_170_170.jpg", "hotel_lon": "112.976293", "hotel_facility": ["公共区域免费WIFI", "停车场"], "hotel_id": "16019696", "hotel_judgement": "168", "hotel_address": "天心区解放西路450号汀兰雅苑，湘江中路，黄兴中路 地铁1,2号线。步行街，平和堂，王府井，国金中心，九龙仓，橘子洲，岳麓山，太平街。 ", "hotel_price": "220", "hotel_lat": "28.198174", "hotel_point": "4.8", "hotel_label": ["考场周边"], "hotel_name": "小鸟云季酒店(长沙五一广场步行街店)"},
{"hotel_img": "//dimg10.c-ctrip.com/images/200r0e00000072qls62B6_R_170_170.jpg", "hotel_lon": "112.984805958433", "hotel_facility": ["公共区域免费WIFI"], "hotel_id": "6662706", "hotel_judgement": "763", "hotel_address": "芙蓉区城市生活家802-803，黄兴商业步行街口。 ", "hotel_price": "115", "hotel_lat": "28.1972704631248", "hotel_point": "4.6", "hotel_label": ["考场周边"], "hotel_name": "长沙山水主题酒店"},
{"hotel_img": "//dimg11.c-ctrip.com/images/fd/hotel/g3/M08/FB/98/CggYGlZVCK-Ac0XGAAc2bIfuNgE962_R_170_170.jpg", "hotel_lon": "113.03477438885", "hotel_facility": ["公共区域免费WIFI", "停车场", "餐厅", "会议室"], "hotel_id": "2061601", "hotel_judgement": "1610", "hotel_address": "雨花区香樟路香樟兰亭5栋(圭塘路228号)，近民政学院，环保学院和植物园。 ", "hotel_price": "231", "hotel_lat": "28.144741238713", "hotel_point": "4.3", "hotel_label": ["考场周边", "浪漫情侣", "商务出行"], "hotel_name": "长沙泰悦年华酒店"},
{"hotel_img": "//dimg12.c-ctrip.com/images/200u0s000000hxj7r76C5_R_170_170.jpg", "hotel_lon": "112.98722843116", "hotel_facility": [], "hotel_id": "1695316", "hotel_judgement": "1682", "hotel_address": "芙蓉区中山路100号（中山路与蔡锷路交叉口），近五一广场、芙蓉广场、火宫殿、太平老街、橘子洲、岳麓山、湖南省人民医院。 ", "hotel_price": "138", "hotel_lat": "28.205543220689", "hotel_point": "4.6", "hotel_label": ["考场周边"], "hotel_name": "凯旋龙连锁酒店(长沙五一广场中山路店)"},
{"hotel_img": "//dimg12.c-ctrip.com/images/20030s000000i15m4734F_R_170_170.jpg", "hotel_lon": "112.975866", "hotel_facility": ["公共区域免费WIFI", "接机服务"], "hotel_id": "7042120", "hotel_judgement": "76", "hotel_address": "天心区湘江中路二段36号海信广场，近坡子街。 ", "hotel_price": "492", "hotel_lat": "28.196084", "hotel_point": "4.8", "hotel_label": ["考场周边", "公寓"], "hotel_name": "长沙辉盛私属公寓(原长沙THE MOST公寓)"},
{"hotel_img": "//dimg10.c-ctrip.com/images/200l080000002v9jc31EE_R_170_170.jpg", "hotel_lon": "113.003052", "hotel_facility": ["公共区域免费WIFI", "停车场", "餐厅"], "hotel_id": "976462", "hotel_judgement": "930", "hotel_address": "雨花区韶山北路312号，近省水利厅。 ", "hotel_price": "122", "hotel_lat": "28.184558", "hotel_point": "4.4", "hotel_label": ["考场周边"], "hotel_name": "如家酒店(长沙韶山北路市妇幼长岭店)(原城南路口店/东塘店)"},
{"hotel_img": "//dimg13.c-ctrip.com/images/200d0l000000crrg5BC7B_R_170_170.jpg", "hotel_lon": "113.02064286496", "hotel_facility": ["公共区域免费WIFI", "停车场"], "hotel_id": "2546899", "hotel_judgement": "111", "hotel_address": "雨花区韶山南路红星美凯龙以南50米，近中意一路。 ", "hotel_price": "169", "hotel_lat": "28.108783450532", "hotel_point": "4.8", "hotel_label": [], "hotel_name": "IU酒店(长沙红星汽车南站店)(原福锦商务酒店)"},
{"hotel_img": "//dimg10.c-ctrip.com/images/fd/hotel/g3/M02/5A/6A/CggYGlXmS6SAWGZPAAHiD0esTv0574_R_170_170.jpg", "hotel_lon": "112.99008751376", "hotel_facility": [], "hotel_id": "1406760", "hotel_judgement": "734", "hotel_address": "芙蓉区解放西路41号，近省人民医院。 ", "hotel_price": "157", "hotel_lat": "28.195748368098", "hotel_point": "4.5", "hotel_label": ["考场周边"], "hotel_name": "7天连锁酒店(长沙定王台店)"},
{"hotel_img": "//dimg11.c-ctrip.com/images/t1/hotel/1018000/1017693/151adef2cd854eb9baf6e1e35f71eacc_R_170_170.jpg", "hotel_lon": "113.04091331666", "hotel_facility": ["公共区域免费WIFI", "停车场"], "hotel_id": "1017692", "hotel_judgement": "683", "hotel_address": "雨花区万家丽路三段喜盈门范城4栋1楼，雨花区政府、喜盈门范城、高铁南站、万家丽南路。 ", "hotel_price": "166", "hotel_lat": "28.14111338569", "hotel_point": "4.2", "hotel_label": ["考场周边"], "hotel_name": "198大酒店(长沙喜盈门店)"},
{"hotel_img": "//dimg10.c-ctrip.com/images/200e060000001wj8j865B_R_170_170.jpg", "hotel_lon": "112.99331025219", "hotel_facility": ["公共区域免费WIFI", "停车场", "会议室"], "hotel_id": "1985838", "hotel_judgement": "1208", "hotel_address": "天心区芙蓉南路一段158号，近铁道学院西门，地铁1号线铁道学院站，天虹，省政府，芙蓉南路。 ", "hotel_price": "134", "hotel_lat": "28.144675122393", "hotel_point": "4.2", "hotel_label": ["考场周边"], "hotel_name": "长沙乐枫酒店"},
{"hotel_img": "//dimg11.c-ctrip.com/images/200k0p000000fjyqz9232_R_170_170.jpg", "hotel_lon": "113.01579", "hotel_facility": ["公共区域免费WIFI", "停车场", "餐厅", "接机服务", "游泳池", "健身房"], "hotel_id": "15725606", "hotel_judgement": "56", "hotel_address": "雨花区迎新路499号御溪国际1栋，近大塘路。 ", "hotel_price": "309", "hotel_lat": "28.119611", "hotel_point": "4.3", "hotel_label": ["考场周边", "休闲度假", "商务出行"], "hotel_name": "长沙泊悦国际酒店"},
{"hotel_img": "//dimg11.c-ctrip.com/images/200s0o000000eu3pl4576_R_170_170.jpg", "hotel_lon": "113.018426", "hotel_facility": ["公共区域免费WIFI"], "hotel_id": "14944585", "hotel_judgement": "99", "hotel_address": "雨花区高升时代广场4栋6层，汽车南站、湖南省森林植物园、高升商业广场、德思勤城市广场。 ", "hotel_price": "178", "hotel_lat": "28.101201", "hotel_point": "4.7", "hotel_label": ["考场周边"], "hotel_name": "仟寻设计师花园酒店(长沙汽车南站店)"},
{"hotel_img": "//dimg12.c-ctrip.com/images/200907000000255qdAD42_R_170_170.jpg", "hotel_lon": "113.01135249417", "hotel_facility": ["公共区域免费WIFI", "停车场"], "hotel_id": "1818143", "hotel_judgement": "1537", "hotel_address": "芙蓉区五一大道79号人建大厦，近地铁口、火车站、机场大巴起始站、火宫殿。 ", "hotel_price": "236", "hotel_lat": "28.199802926482", "hotel_point": "4.6", "hotel_label": ["考场周边", "浪漫情侣", "商务出行"], "hotel_name": "长沙OOHHOO喔活酒店"},
{"hotel_img": "//dimg12.c-ctrip.com/images/hotel/379000/378482/c9b7423dcdfa4df0a9caf7bd83aba075_R_170_170.jpg", "hotel_lon": "113.04095869783", "hotel_facility": ["公共区域免费WIFI", "停车场", "餐厅"], "hotel_id": "1208600", "hotel_judgement": "257", "hotel_address": "芙蓉区人民东路199号，人民东路芙蓉区政府旁。 ", "hotel_price": "489", "hotel_lat": "28.190697878691", "hotel_point": "4.3", "hotel_label": ["考场周边", "商务出行"], "hotel_name": "长沙凡尔赛酒店"},
{"hotel_img": "//dimg12.c-ctrip.com/images/20060q000000gbomgBABB_R_170_170.jpg", "hotel_lon": "113.00341573512", "hotel_facility": ["公共区域免费WIFI", "停车场", "会议室"], "hotel_id": "1433011", "hotel_judgement": "782", "hotel_address": "雨花区韶山北路256号，亚韩美容医院、附二医院、长沙市妇幼保健院旁。 ", "hotel_price": "184", "hotel_lat": "28.189068258758", "hotel_point": "4.3", "hotel_label": ["考场周边", "浪漫情侣", "商务出行"], "hotel_name": "长沙花瀚酒店"},
{"hotel_img": "//dimg12.c-ctrip.com/images/200d0k000000b2fb4F670_R_170_170.jpg", "hotel_lon": "112.999524", "hotel_facility": ["公共区域免费WIFI"], "hotel_id": "1924087", "hotel_judgement": "514", "hotel_address": "开福区福元西路148号万科城36栋，近洪山西路。 ", "hotel_price": "168", "hotel_lat": "28.252204", "hotel_point": "4.5", "hotel_label": [], "hotel_name": "7天长沙芙蓉北路万科城店"},
{"hotel_img": "//dimg12.c-ctrip.com/images/200f0q000000g0hn0EEB4_R_170_170.jpg", "hotel_lon": "112.986914", "hotel_facility": ["公共区域免费WIFI", "停车场"], "hotel_id": "8550064", "hotel_judgement": "120", "hotel_address": "芙蓉区蔡锷中路邵阳坪41号，五一钻界后面。 ", "hotel_price": "143", "hotel_lat": "28.202746", "hotel_point": "4.0", "hotel_label": ["考场周边"], "hotel_name": "如家派柏·云酒店(长沙五一广场店)(原万客来酒店)"},
{"hotel_img": "//dimg12.c-ctrip.com/images/200p0k000000b8ah7B7FF_R_170_170.jpg", "hotel_lon": "113.01494403698", "hotel_facility": ["公共区域免费WIFI", "停车场", "餐厅", "会议室"], "hotel_id": "1416653", "hotel_judgement": "4543", "hotel_address": "芙蓉区长沙八一路23号，近车站路、晓园路、八一路。 ", "hotel_price": "164", "hotel_lat": "28.203141623822", "hotel_point": "4.7", "hotel_label": ["考场周边", "浪漫情侣", "商务出行"], "hotel_name": "美年21度酒店(长沙火车站)(原长沙美年21度酒店)"},
{"hotel_img": "//dimg12.c-ctrip.com/images/200e04000000015a88DAE_R_170_170.jpg", "hotel_lon": "113.023749", "hotel_facility": ["公共区域WIFI", "停车场"], "hotel_id": "1774592", "hotel_judgement": "591", "hotel_address": "芙蓉区远大一路223号，近东二环 距去张家界凤凰旅游巴士上下车地点50-100米。 ", "hotel_price": "116", "hotel_lat": "28.204639", "hotel_point": "4.4", "hotel_label": ["考场周边"], "hotel_name": "7天连锁酒店(长沙火车站三湘市场店)"},
{"hotel_img": "//dimg12.c-ctrip.com/images/200f0f0000007d6fhB9C9_R_170_170.jpg", "hotel_lon": "113.033079", "hotel_facility": ["停车场"], "hotel_id": "6106769", "hotel_judgement": "435", "hotel_address": "雨花区曲塘路48号五江天街，树木岭、五江天街。 ", "hotel_price": "190", "hotel_lat": "28.152598", "hotel_point": "4.7", "hotel_label": ["考场周边"], "hotel_name": "城市便捷酒店(长沙五江天街店)"},
{"hotel_img": "//dimg13.c-ctrip.com/images/200n050000000enub80F8_R_170_170.jpg", "hotel_lon": "113.00026125724", "hotel_facility": ["公共区域免费WIFI"], "hotel_id": "1612421", "hotel_judgement": "670", "hotel_address": "天心区竹塘西路180号他城时代公寓，近桔园立交桥西南角。 ", "hotel_price": "137", "hotel_lat": "28.151089255626", "hotel_point": "4.6", "hotel_label": ["考场周边"], "hotel_name": "7天连锁酒店 (长沙桔园立交桥铁道学院店)"},
{"hotel_img": "//dimg10.c-ctrip.com/images/20030q000000gpnvuBA27_R_170_170.jpg", "hotel_lon": "112.983107", "hotel_facility": [], "hotel_id": "6832689", "hotel_judgement": "175", "hotel_address": "五一广场黄兴南路步行街450号，近地铁1号线黄兴广场站1号出口。 ", "hotel_price": "259", "hotel_lat": "28.1967", "hotel_point": "4.6", "hotel_label": ["考场周边"], "hotel_name": "Q+长沙Miss情侣主题酒店"},
{"hotel_img": "//dimg13.c-ctrip.com/images/200n0q000000gm0le86B5_R_170_170.jpg", "hotel_lon": "112.980749", "hotel_facility": ["公共区域免费WIFI", "停车场"], "hotel_id": "5662633", "hotel_judgement": "875", "hotel_address": "芙蓉区长沙芙蓉区五一大道689号地铁2号线五一广场站1号出站口景江东方大厦11楼1107室（光大银行左侧东门电梯上楼），味蜀吾老火锅进去上电梯。 ", "hotel_price": "128", "hotel_lat": "28.200839", "hotel_point": "4.8", "hotel_label": ["考场周边"], "hotel_name": "长沙万家公寓酒店五一步行街店"},
{"hotel_img": "//dimg12.c-ctrip.com/images/200o0j000000b11ii35CD_R_170_170.jpg", "hotel_lon": "113.01774055492", "hotel_facility": ["公共区域免费WIFI", "停车场"], "hotel_id": "1810197", "hotel_judgement": "622", "hotel_address": "雨花区井湾路249号(建筑工程学院旁，环保学院)，近韶山南路国际家具mall。 ", "hotel_price": "147", "hotel_lat": "28.13200910771", "hotel_point": "4.7", "hotel_label": ["考场周边"], "hotel_name": "7天连锁酒店(长沙井湾子国际家具广场店)"},
{"hotel_img": "//dimg10.c-ctrip.com/images/200c0m000000deld81A45_R_170_170.jpg", "hotel_lon": "112.993597", "hotel_facility": ["公共区域免费WIFI", "停车场"], "hotel_id": "11214558", "hotel_judgement": "345", "hotel_address": "雨花区芙蓉中路第六都6号栋，地铁涂家冲3号出口站100米，近湖南大众传媒雅思考点，长沙理工大学金盆岭校区,省二医院(省脑科医院),省地矿医院，省教育电视台。 ", "hotel_price": "196", "hotel_lat": "28.157114", "hotel_point": "4.8", "hotel_label": ["考场周边", "浪漫情侣"], "hotel_name": "长沙CCS酒店"},
{"hotel_img": "//dimg13.c-ctrip.com/images/20080400000008tk48BEA_R_170_170.jpg", "hotel_lon": "112.9781457424", "hotel_facility": ["公共区域免费WIFI", "停车场", "餐厅"], "hotel_id": "2541375", "hotel_judgement": "915", "hotel_address": "天心区南湖路458号南湖隧道口蓝湾国际C座31楼，书院路与南湖路交汇处。 ", "hotel_price": "188", "hotel_lat": "28.170998643428", "hotel_point": "4.5", "hotel_label": ["考场周边"], "hotel_name": "长沙蓝湾国际酒店"},
{"hotel_img": "//dimg12.c-ctrip.com/images/fd/hotel/g4/M01/A7/91/CggYHVXr00GAbNJeAAHiD0esTv0029_R_170_170.jpg", "hotel_lon": "112.99267298698", "hotel_facility": [], "hotel_id": "1774285", "hotel_judgement": "1174", "hotel_address": "天心区芙蓉中路二段112号，近人民中路。 ", "hotel_price": "136", "hotel_lat": "28.191273903709", "hotel_point": "4.4", "hotel_label": ["考场周边"], "hotel_name": "7天连锁酒店(长沙识字岭天心阁店)"},
{"hotel_img": "//dimg12.c-ctrip.com/images/200e060000001znoy0FB8_R_170_170.jpg", "hotel_lon": "113.018185", "hotel_facility": ["公共区域免费WIFI"], "hotel_id": "1780599", "hotel_judgement": "730", "hotel_address": "开福区三一大道392号，麦德龙超市对面。 ", "hotel_price": "147", "hotel_lat": "28.239206", "hotel_point": "4.4", "hotel_label": ["考场周边"], "hotel_name": "7天连锁酒店(长沙四方坪店)"},
{"hotel_img": "//dimg11.c-ctrip.com/images/200r0r000000gw6c99EF5_R_170_170.jpg", "hotel_lon": "113.009364", "hotel_facility": ["公共区域免费WIFI", "停车场"], "hotel_id": "16039747", "hotel_judgement": "31", "hotel_address": "天心区韶山南路658号，近林业科技大学。 ", "hotel_price": "160", "hotel_lat": "28.137038", "hotel_point": "4.7", "hotel_label": ["考场周边"], "hotel_name": "麦吉时尚酒店(长沙林科大店)"},
{"hotel_img": "//dimg12.c-ctrip.com/images/200t0900000046whc2726_R_170_170.jpg", "hotel_lon": "113.01220049086", "hotel_facility": [], "hotel_id": "1406756", "hotel_judgement": "626", "hotel_address": "芙蓉区人民中路489号，近丽人妇产医院旁。 ", "hotel_price": "115", "hotel_lat": "28.191352883679", "hotel_point": "4.5", "hotel_label": ["考场周边"], "hotel_name": "7天连锁酒店(长沙朝阳家润多店)"},
{"hotel_img": "//dimg13.c-ctrip.com/images/20060j000000ajm6uDCBA_R_170_170.jpg", "hotel_lon": "112.96159566996", "hotel_facility": ["公共区域免费WIFI", "餐厅"], "hotel_id": "1484817", "hotel_judgement": "1418", "hotel_address": "岳麓区银盆南路329号，近桐梓坡路。 ", "hotel_price": "116", "hotel_lat": "28.223607176756", "hotel_point": "4.5", "hotel_label": ["考场周边"], "hotel_name": "安其居酒店(长沙银盆岭奥克斯广场店)"},
{"hotel_img": "//dimg11.c-ctrip.com/images/200d0s000000hw2txBF7F_R_170_170.jpg", "hotel_lon": "113.01663463825", "hotel_facility": ["公共区域免费WIFI", "停车场", "会议室"], "hotel_id": "1743154", "hotel_judgement": "715", "hotel_address": "雨花区机电市场E区中意一路310号和平村委大楼，近汽车南站、雨花机电市场、红星国际会展中心、湖南省森林植物园、德思勤城市广场。 ", "hotel_price": "126", "hotel_lat": "28.097734981553", "hotel_point": "4.3", "hotel_label": ["考场周边"], "hotel_name": "凯旋龙连锁酒店(长沙汽车南站店)"},
{"hotel_img": "//dimg11.c-ctrip.com/images/20080f0000007koyo59F2_R_170_170.jpg", "hotel_lon": "112.975618", "hotel_facility": ["公共区域免费WIFI", "停车场"], "hotel_id": "5272263", "hotel_judgement": "541", "hotel_address": "天心区湘江中路18号，（地铁湘江中路1号出口）观橘洲烟花，赏橘洲美景，近橘子洲、坡子街、步行街、火宫殿。 ", "hotel_price": "276", "hotel_lat": "28.198471", "hotel_point": "4.4", "hotel_label": ["考场周边"], "hotel_name": "潭州酒店(长沙湘江中路地铁站店)(原潭州城里私属民宿)"},
{"hotel_img": "//dimg12.c-ctrip.com/images/fd/hotel/g1/M07/08/A5/CghzflW7cnqAJy6qAAIMzATIcBQ867_R_170_170.jpg", "hotel_lon": "113.02304045858", "hotel_facility": ["停车场", "餐厅"], "hotel_id": "1406767", "hotel_judgement": "528", "hotel_address": "雨花区东二环一段647号，近长沙海关正对面。 ", "hotel_price": "126", "hotel_lat": "28.183526153636", "hotel_point": "4.7", "hotel_label": ["考场周边"], "hotel_name": "7天连锁酒店(长沙高桥市场西店)"},
{"hotel_img": "//dimg11.c-ctrip.com/images/200i080000002u8jg7546_R_170_170.jpg", "hotel_lon": "113.0071244426", "hotel_facility": ["公共区域免费WIFI", "停车场", "餐厅"], "hotel_id": "4120388", "hotel_judgement": "538", "hotel_address": "雨花区人民中路386号，近曙光中路。 ", "hotel_price": "178", "hotel_lat": "28.191112400352", "hotel_point": "4.4", "hotel_label": ["考场周边"], "hotel_name": "城市便捷酒店(长沙窑岭店)"},
{"hotel_img": "//dimg12.c-ctrip.com/images/20070q000000h3ynb5D12_R_170_170.jpg", "hotel_lon": "112.996686", "hotel_facility": ["公共区域WIFI", "停车场", "接机服务"], "hotel_id": "11211729", "hotel_judgement": "42", "hotel_address": "天心区芙蓉南路中建芙蓉工社1栋（地铁1号线大托3号出口）。 ", "hotel_price": "188", "hotel_lat": "28.087783", "hotel_point": "4.5", "hotel_label": ["考场周边"], "hotel_name": "长沙寐丽酒店"},
{"hotel_img": "//dimg13.c-ctrip.com/images/200c0i0000009j5usCD80_R_170_170.jpg", "hotel_lon": "113.00714770103", "hotel_facility": ["公共区域免费WIFI", "停车场", "餐厅", "会议室"], "hotel_id": "2034712", "hotel_judgement": "250", "hotel_address": "雨花区劳动中路87号，近曙光中路。 ", "hotel_price": "261", "hotel_lat": "28.172575459942", "hotel_point": "4.2", "hotel_label": ["考场周边", "休闲度假", "商务出行"], "hotel_name": "长沙华宇大酒店"},
{"hotel_img": "//dimg13.c-ctrip.com/images/200p0f0000007i0se5EFE_R_170_170.jpg", "hotel_lon": "113.037857", "hotel_facility": ["公共区域免费WIFI", "停车场", "餐厅"], "hotel_id": "6037015", "hotel_judgement": "750", "hotel_address": "芙蓉区万家丽北路三段491号，万家丽路与古汉路交汇处东北角。 ", "hotel_price": "239", "hotel_lat": "28.211511", "hotel_point": "4.5", "hotel_label": ["考场周边", "浪漫情侣"], "hotel_name": "汇和精品酒店(长沙马王堆店)"},
{"hotel_img": "//dimg12.c-ctrip.com/images/fd/hotel/g1/M0A/BB/2F/CghzfVW7cxCACu2AAAIbMi7HZY4661_R_170_170.jpg", "hotel_lon": "113.03027619702", "hotel_facility": ["公共区域WIFI", "停车场"], "hotel_id": "1774538", "hotel_judgement": "396", "hotel_address": "芙蓉区紫薇路106号，近长沙市疾病控制中心。 ", "hotel_price": "147", "hotel_lat": "28.206471720355", "hotel_point": "4.5", "hotel_label": ["考场周边"], "hotel_name": "7天连锁酒店(长沙马王堆紫薇路店)"},
{"hotel_img": "//dimg10.c-ctrip.com/images/20010s000000ijv976331_R_170_170.jpg", "hotel_lon": "113.014864", "hotel_facility": ["公共区域免费WIFI", "停车场", "会议室"], "hotel_id": "6781268", "hotel_judgement": "248", "hotel_address": "雨花区香樟路255号云集公馆，民政学院，林科大,“免押金免查房” 香樟路云集大厦内。 ", "hotel_price": "157", "hotel_lat": "28.142523", "hotel_point": "4.7", "hotel_label": ["考场周边"], "hotel_name": "格诺瑞斯主题酒店(长沙香樟路民政学院店)"},
{"hotel_img": "//dimg13.c-ctrip.com/images/200t0n000000ejzckFAD9_R_170_170.jpg", "hotel_lon": "113.02740211069", "hotel_facility": ["公共区域免费WIFI", "停车场", "餐厅", "会议室"], "hotel_id": "1547402", "hotel_judgement": "1074", "hotel_address": "雨花区树木岭路57号，近航空路。 ", "hotel_price": "248", "hotel_lat": "28.160242839245", "hotel_point": "4.6", "hotel_label": ["考场周边", "休闲度假", "浪漫情侣"], "hotel_name": "麗枫酒店(长沙高铁站树木岭店)"},
{"hotel_img": "//dimg12.c-ctrip.com/images/2h0i0r000000hbc8jD495_R_170_170.jpg", "hotel_lon": "113.025062", "hotel_facility": ["公共区域WIFI", "接机服务"], "hotel_id": "18031170", "hotel_judgement": "12", "hotel_address": "雨花区劳动东路139号新世界广场，近树木岭地铁站D出口。 ", "hotel_price": "156", "hotel_lat": "28.162188", "hotel_point": "4.8", "hotel_label": [], "hotel_name": "璞轻酒店(长沙树木岭地铁站店)"},
{"hotel_img": "//dimg13.c-ctrip.com/images/280t0s000000hxyrb6018_R_170_170.jpg", "hotel_lon": "112.9768", "hotel_facility": ["公共区域免费WIFI", "停车场"], "hotel_id": "18421579", "hotel_judgement": "2", "hotel_address": "天心区湘江中路2段36号海信广场华远国际公寓楼2栋27楼，近坡子街、华远国际公寓、五一广场、IFS国金中心、国金街、 橘子洲。 ", "hotel_price": "307", "hotel_lat": "28.196207", "hotel_point": "5.0", "hotel_label": [], "hotel_name": "长沙翼舍城市新民宿"},
{"hotel_img": "//dimg12.c-ctrip.com/images/200h0s000000hz48nFC04_R_170_170.jpg", "hotel_lon": "113.01753278868", "hotel_facility": ["公共区域免费WIFI", "停车场"], "hotel_id": "1696569", "hotel_judgement": "678", "hotel_address": "雨花区车站南路1040号，近长沙火车站、长株潭汽车站、高桥建材市场、金苹果市场、爱思特整形医院、港岛。。 ", "hotel_price": "116", "hotel_lat": "28.189815035105", "hotel_point": "4.5", "hotel_label": ["考场周边"], "hotel_name": "凯旋龙连锁酒店(长沙火车站店)"},
{"hotel_img": "//dimg13.c-ctrip.com/images/20090s000000hutioBCF3_R_170_170.jpg", "hotel_lon": "112.93164", "hotel_facility": ["停车场", "餐厅"], "hotel_id": "17539387", "hotel_judgement": "37", "hotel_address": "岳麓区含光路733号广泰锦苑1栋，近谷丰北路。 ", "hotel_price": "348", "hotel_lat": "28.242741", "hotel_point": "5.0", "hotel_label": [], "hotel_name": "麗枫酒店(长沙市政府店)"},
{"hotel_img": "//dimg10.c-ctrip.com/images/2002070000002jsh6E15A_R_170_170.jpg", "hotel_lon": "113.01897376387", "hotel_facility": ["停车场", "接机服务"], "hotel_id": "1725834", "hotel_judgement": "387", "hotel_address": "雨花区中意一路313号，女子大学斜对面。 ", "hotel_price": "124", "hotel_lat": "28.121495288139", "hotel_point": "4.0", "hotel_label": ["考场周边"], "hotel_name": "长沙流星花园酒店"},
{"hotel_img": "//dimg13.c-ctrip.com/images/200r0q000000gkpal894B_R_170_170.jpg", "hotel_lon": "112.987244", "hotel_facility": ["停车场"], "hotel_id": "16115469", "hotel_judgement": "94", "hotel_address": "芙蓉区蔡锷中路185号五一钻界大厦16楼，近长沙步行街。 ", "hotel_price": "247", "hotel_lat": "28.202643", "hotel_point": "5.0", "hotel_label": ["考场周边", "宠物友好"], "hotel_name": "拾光之旅酒店式公寓(长沙五一广场店)(原Anneyhotel酒店公寓)"},
{"hotel_img": "//dimg10.c-ctrip.com/images/200c04000000080ph7851_R_170_170.jpg", "hotel_lon": "113.01100338396", "hotel_facility": [], "hotel_id": "1390624", "hotel_judgement": "910", "hotel_address": "芙蓉区长岛路18号，近长沙火车站。 ", "hotel_price": "77", "hotel_lat": "28.201222268038", "hotel_point": "4.1", "hotel_label": [], "hotel_name": "易佰连锁旅店(长沙火车站店)"},
{"hotel_img": "//dimg13.c-ctrip.com/images/20070o000000fni2tEEF8_R_170_170.jpg", "hotel_lon": "112.987298", "hotel_facility": ["公共区域WIFI", "停车场"], "hotel_id": "15167552", "hotel_judgement": "116", "hotel_address": "芙蓉区五一大道549号联合商厦29楼，近地铁1、2号线。 ", "hotel_price": "170", "hotel_lat": "28.200148", "hotel_point": "4.8", "hotel_label": ["考场周边"], "hotel_name": "长沙无二旅居酒店"},
{"hotel_img": "//dimg13.c-ctrip.com/images/200s080000003bmg2FFD3_R_170_170.jpg", "hotel_lon": "113.02223922315", "hotel_facility": ["公共区域免费WIFI", "停车场", "餐厅"], "hotel_id": "1545803", "hotel_judgement": "649", "hotel_address": "雨花区时代阳光大道58号，近洞裕路，汽车南站，红星国际会展中心，湖南省森林植物园，德思勤城市广场。 ", "hotel_price": "145", "hotel_lat": "28.10498653845", "hotel_point": "4.1", "hotel_label": ["考场周边", "宠物友好"], "hotel_name": "城市便捷酒店(长沙汽车南站店)"},
{"hotel_img": "//dimg10.c-ctrip.com/images/hotel/522000/521069/6823fdddcc66427980228b683b4d5fa1_R_170_170.jpg", "hotel_lon": "113.00335578875", "hotel_facility": ["公共区域免费WIFI", "停车场", "餐厅", "会议室"], "hotel_id": "2036867", "hotel_judgement": "644", "hotel_address": "芙蓉区韶山北路20号，近中国银行。 ", "hotel_price": "86", "hotel_lat": "28.205655914181", "hotel_point": "4.4", "hotel_label": ["考场周边", "商务出行"], "hotel_name": "长沙中共湖南省委招待所"},
{"hotel_img": "//dimg11.c-ctrip.com/images/200i0k000000bspnk8894_R_170_170.jpg", "hotel_lon": "112.98184", "hotel_facility": [], "hotel_id": "6556118", "hotel_judgement": "179", "hotel_address": "天心区长沙天心区王府井小区D栋1503。 ", "hotel_price": "38", "hotel_lat": "28.198211", "hotel_point": "4.8", "hotel_label": ["青旅"], "hotel_name": "长沙他方国际青年旅舍"},
{"hotel_img": "//dimg13.c-ctrip.com/images/200c09000000476ii9F10_R_170_170.jpg", "hotel_lon": "113.01085403783", "hotel_facility": ["公共区域免费WIFI", "停车场", "餐厅", "会议室"], "hotel_id": "5347631", "hotel_judgement": "282", "hotel_address": "天心区友谊路22号（井湾子家具城对面），韶山南路，中南林业科技大学，女子大学，铁道学院，红星大市场。 ", "hotel_price": "231", "hotel_lat": "28.13149089698", "hotel_point": "4.6", "hotel_label": [], "hotel_name": "城市便捷酒店(长沙井湾子店)"},
{"hotel_img": "//dimg11.c-ctrip.com/images/200p04000000054oa3B9D_R_170_170.jpg", "hotel_lon": "112.9910197248", "hotel_facility": ["停车场", "接机服务"], "hotel_id": "1487948", "hotel_judgement": "980", "hotel_address": "开福区营盘路296号，近营盘东路。 ", "hotel_price": "161", "hotel_lat": "28.209019985415", "hotel_point": "4.3", "hotel_label": ["考场周边"], "hotel_name": "长沙欧帝佳酒店"},
{"hotel_img": "//dimg12.c-ctrip.com/images/200s080000003h84qCC23_R_170_170.jpg", "hotel_lon": "112.920809", "hotel_facility": ["公共区域免费WIFI"], "hotel_id": "6008790", "hotel_judgement": "172", "hotel_address": "岳麓区西二环达美D6区3栋1609室(麦当劳正对面)，近玉兰路。 ", "hotel_price": "115", "hotel_lat": "28.209797", "hotel_point": "4.7", "hotel_label": ["考场周边"], "hotel_name": "长沙恋上你情侣主题酒店(汽车西站店)"},
{"hotel_img": "//dimg10.c-ctrip.com/images/200n0s000000hutfx9FEB_R_170_170.jpg", "hotel_lon": "112.98056457082", "hotel_facility": ["公共区域免费WIFI", "停车场"], "hotel_id": "1488956", "hotel_judgement": "1304", "hotel_address": "天心区坡子街景江东方大厦1413房，近三泰街。 ", "hotel_price": "106", "hotel_lat": "28.200842513619", "hotel_point": "4.8", "hotel_label": ["考场周边", "公寓"], "hotel_name": "长沙忘不了酒店公寓"},
{"hotel_img": "//dimg11.c-ctrip.com/images/200g050000000ed4j76B1_R_170_170.jpg", "hotel_lon": "112.91082050573", "hotel_facility": ["公共区域免费WIFI", "停车场", "餐厅", "会议室"], "hotel_id": "2301270", "hotel_judgement": "228", "hotel_address": "岳麓区麓景路66号，近枫林三路、湖南商学院、汽车西站。 ", "hotel_price": "232", "hotel_lat": "28.222110981575", "hotel_point": "4.5", "hotel_label": ["考场周边", "商务出行"], "hotel_name": "长沙人瑞大酒店"},
{"hotel_img": "//dimg11.c-ctrip.com/images/200b0r000000gyzts6C1D_R_170_170.jpg", "hotel_lon": "113.027351", "hotel_facility": [], "hotel_id": "6859622", "hotel_judgement": "7", "hotel_address": "长沙市树木岭路57号。 ", "hotel_price": "187", "hotel_lat": "28.160588", "hotel_point": "3.9", "hotel_label": ["考场周边"], "hotel_name": "长沙国龙大酒店"},
{"hotel_img": "//dimg11.c-ctrip.com/images/200c0400000003v803FC7_R_170_170.jpg", "hotel_lon": "113.04448293519", "hotel_facility": ["公共区域WIFI", "停车场"], "hotel_id": "1693422", "hotel_judgement": "197", "hotel_address": "雨花区万家丽路天际岭隧道口南古潭商住楼，近世纪桃花苑。 ", "hotel_price": "125", "hotel_lat": "28.10449127518", "hotel_point": "4.3", "hotel_label": ["考场周边"], "hotel_name": "长沙来享时尚酒店"},
{"hotel_img": "//dimg12.c-ctrip.com/images/200t0s000000hzczz4981_R_170_170.jpg", "hotel_lon": "113.026943", "hotel_facility": ["公共区域免费WIFI"], "hotel_id": "17500219", "hotel_judgement": "16", "hotel_address": "雨花区湘府东路2号红星商务楼一栋2楼，近洞井路。 ", "hotel_price": "178", "hotel_lat": "28.116064", "hotel_point": "5.0", "hotel_label": [], "hotel_name": "长沙欧帝佳电影主题酒店"},
{"hotel_img": "//dimg10.c-ctrip.com/images/200p0400000001bs8E827_R_170_170.jpg", "hotel_lon": "113.007791", "hotel_facility": ["公共区域免费WIFI"], "hotel_id": "470177", "hotel_judgement": "470", "hotel_address": "雨花区曙光路195号，近城南东路。 ", "hotel_price": "131", "hotel_lat": "28.1833", "hotel_point": "4.5", "hotel_label": ["考场周边"], "hotel_name": "莫泰168(长沙左家塘店)"},
{"hotel_img": "//dimg13.c-ctrip.com/images/2002070000002plac786E_R_170_170.jpg", "hotel_lon": "113.01745482806", "hotel_facility": ["停车场", "餐厅", "会议室"], "hotel_id": "2298819", "hotel_judgement": "457", "hotel_address": "芙蓉区车站北路126号（湖南省委党校斜对面），与竹园路交汇处。 ", "hotel_price": "193", "hotel_lat": "28.208054496735", "hotel_point": "4.0", "hotel_label": ["考场周边", "商务出行"], "hotel_name": "湖南华信宾馆"},
{"hotel_img": "//dimg13.c-ctrip.com/images/20080s000000hxcbfE7C4_R_170_170.jpg", "hotel_lon": "113.073323", "hotel_facility": ["停车场"], "hotel_id": "13925790", "hotel_judgement": "18", "hotel_address": "雨花区劳动东路1299号万科魅力之城6栋17楼。 ", "hotel_price": "122", "hotel_lat": "28.165203", "hotel_point": "4.9", "hotel_label": ["考场周边"], "hotel_name": "馨梦公寓酒店(长沙高铁南站店)"},
{"hotel_img": "//dimg10.c-ctrip.com/images/20060e00000072ioq882A_R_170_170.jpg", "hotel_lon": "113.002815", "hotel_facility": [], "hotel_id": "4825752", "hotel_judgement": "244", "hotel_address": "芙蓉区韶山北路86号，近五一大道。 ", "hotel_price": "85", "hotel_lat": "28.199895", "hotel_point": "4.7", "hotel_label": [], "hotel_name": "长沙鑫阅宾馆"},
{"hotel_img": "//dimg13.c-ctrip.com/images/20090k000000b8qk18B51_R_170_170.jpg", "hotel_lon": "112.990753", "hotel_facility": ["公共区域免费WIFI", "接机服务"], "hotel_id": "10521855", "hotel_judgement": "63", "hotel_address": "开福区芙蓉中路1段416号泊富公寓，近泊富广场、湘雅医院、湖南省妇幼。 ", "hotel_price": "449", "hotel_lat": "28.214745", "hotel_point": "4.8", "hotel_label": ["考场周边"], "hotel_name": "长沙旧金山公寓式酒店"},
{"hotel_img": "//dimg12.c-ctrip.com/images/200u04000000048gd141F_R_170_170.jpg", "hotel_lon": "113.03181471257", "hotel_facility": ["停车场", "餐厅", "会议室"], "hotel_id": "1883331", "hotel_judgement": "289", "hotel_address": "雨花区圭塘路52号，近曲塘路。 ", "hotel_price": "197", "hotel_lat": "28.150619388035", "hotel_point": "4.2", "hotel_label": ["考场周边"], "hotel_name": "长沙康莱酒店(长沙高铁南站树木岭店)"},
{"hotel_img": "//dimg10.c-ctrip.com/images/200g0s000000hzerj2F34_R_170_170.jpg", "hotel_lon": "113.0052476365", "hotel_facility": ["停车场", "餐厅", "会议室"], "hotel_id": "1808419", "hotel_judgement": "", "hotel_address": "天心区友谊路176号，近万芙路。 ", "hotel_price": "268", "hotel_lat": "28.131083102315", "hotel_point": "", "hotel_label": [], "hotel_name": "喆啡酒店(长沙友谊路地铁站店)"},
{"hotel_img": "//dimg11.c-ctrip.com/images/20060s000000hz3cqD849_R_170_170.jpg", "hotel_lon": "112.919506", "hotel_facility": [], "hotel_id": "6821447", "hotel_judgement": "54", "hotel_address": "长沙岳麓区望城坡涧塘九栋（郁金香北门）。 ", "hotel_price": "77", "hotel_lat": "28.223117", "hotel_point": "5.0", "hotel_label": [], "hotel_name": "长沙云龙宾馆"},
{"hotel_img": "//dimg10.c-ctrip.com/images/200t0r000000h9l1a92A3_R_170_170.jpg", "hotel_lon": "112.913663", "hotel_facility": [], "hotel_id": "6844023", "hotel_judgement": "96", "hotel_address": "岳麓区枫林三路210号，与麓景路交叉口。 ", "hotel_price": "139", "hotel_lat": "28.215096", "hotel_point": "4.8", "hotel_label": ["考场周边"], "hotel_name": "海吻主题艺术酒店(长沙汽车西站店)"},
{"hotel_img": "//dimg11.c-ctrip.com/images/200w0l000000d8fshCE0C_R_170_170.jpg", "hotel_lon": "112.956162", "hotel_facility": ["停车场"], "hotel_id": "11533174", "hotel_judgement": "313", "hotel_address": "岳麓区南二环与潇湘南路交汇处兰亭湾畔D3栋118号，阳光100斜对面。 ", "hotel_price": "197", "hotel_lat": "28.142877", "hotel_point": "4.9", "hotel_label": ["考场周边"], "hotel_name": "季风公寓酒店(长沙洋湖兰亭湾畔店)"},
{"hotel_img": "//dimg13.c-ctrip.com/images/200n0r000000gttljD0BF_R_170_170.jpg", "hotel_lon": "112.99069521551", "hotel_facility": ["公共区域免费WIFI", "停车场", "接机服务"], "hotel_id": "1487935", "hotel_judgement": "83", "hotel_address": "天心区解放西路35号，近湖南人民医院。 ", "hotel_price": "153", "hotel_lat": "28.196016567768", "hotel_point": "4.9", "hotel_label": ["考场周边"], "hotel_name": "长沙欧帝佳大酒店"},
{"hotel_img": "//dimg10.c-ctrip.com/images/fd/hotel/g4/M07/C4/07/CggYHFXtGiCAdKQbADbIwhWtM5A446_R_170_170.jpg", "hotel_lon": "113.04068883743", "hotel_facility": ["公共区域免费WIFI", "停车场"], "hotel_id": "2009622", "hotel_judgement": "969", "hotel_address": "雨花区喜盈门范城C栋7楼，近保利国际影城，喜盈门范城，雨花区政府，高铁南站。 ", "hotel_price": "239", "hotel_lat": "28.140875283291", "hotel_point": "4.8", "hotel_label": ["考场周边"], "hotel_name": "长沙丽江情主题酒店"},
{"hotel_img": "//dimg11.c-ctrip.com/images/20060s000000hz3cqD849_R_170_170.jpg", "hotel_lon": "112.919506", "hotel_facility": [], "hotel_id": "6821447", "hotel_judgement": "54", "hotel_address": "长沙岳麓区望城坡涧塘九栋（郁金香北门）。 ", "hotel_price": "77", "hotel_lat": "28.223117", "hotel_point": "5.0", "hotel_label": [], "hotel_name": "长沙云龙宾馆"},
{"hotel_img": "//dimg13.c-ctrip.com/images/200u0j000000ayv03C01E_R_170_170.jpg", "hotel_lon": "112.976851", "hotel_facility": ["公共区域免费WIFI", "停车场", "餐厅", "接机服务", "游泳池", "健身房"], "hotel_id": "9194401", "hotel_judgement": "972", "hotel_address": "天心区湘江中路36号，近橘子洲头。 ", "hotel_price": "1380", "hotel_lat": "28.194533", "hotel_point": "4.8", "hotel_label": ["考场周边", "浪漫情侣", "商务出行"], "hotel_name": "长沙君悦酒店"},
{"hotel_img": "//dimg13.c-ctrip.com/images/200m0h0000008ssb17396_R_170_170.jpg", "hotel_lon": "112.98255087837", "hotel_facility": ["公共区域免费WIFI", "停车场", "餐厅", "会议室"], "hotel_id": "5855695", "hotel_judgement": "6125", "hotel_address": "天心区黄兴中路55号，地铁1、2号线五一广场站2、3A出口旁。 ", "hotel_price": "282", "hotel_lat": "28.199752271952", "hotel_point": "4.6", "hotel_label": ["考场周边", "浪漫情侣", "商务出行"], "hotel_name": "长沙友谊宾馆"},
{"hotel_img": "//dimg10.c-ctrip.com/images/fd/hotel/g1/M08/E3/BD/CghzflVIdHGAfTSjAAWTU-KeB1Q541_R_170_170.jpg", "hotel_lon": "112.99261888943", "hotel_facility": ["公共区域免费WIFI", "停车场", "餐厅", "游泳池", "健身房", "会议室"], "hotel_id": "444150", "hotel_judgement": "14915", "hotel_address": "开福区芙蓉中路593号，近八一路。 ", "hotel_price": "396", "hotel_lat": "28.204189474683", "hotel_point": "4.8", "hotel_label": ["考场周边", "休闲度假", "浪漫情侣"], "hotel_name": "长沙潇湘华天大酒店"},
{"hotel_img": "//dimg13.c-ctrip.com/images/2005050000000jfvw237B_R_170_170.jpg", "hotel_lon": "112.99278228591", "hotel_facility": ["公共区域免费WIFI", "停车场", "餐厅", "游泳池", "健身房", "会议室"], "hotel_id": "404989", "hotel_judgement": "3031", "hotel_address": "芙蓉区芙蓉中路2段106号，近芙蓉路和人民路交汇处。 ", "hotel_price": "699", "hotel_lat": "28.192188794366", "hotel_point": "4.7", "hotel_label": ["考场周边", "休闲度假", "浪漫情侣"], "hotel_name": "长沙芙蓉国温德姆至尊豪廷大酒店"},
{"hotel_img": "//dimg13.c-ctrip.com/images/200d0k000000btn2m3CFC_R_170_170.jpg", "hotel_lon": "113.051623", "hotel_facility": ["公共区域免费WIFI", "停车场", "餐厅", "健身房", "会议室"], "hotel_id": "8033036", "hotel_judgement": "1431", "hotel_address": "雨花区沙湾路388号，地铁2号线长沙大道3号口，近运达中央广场。 ", "hotel_price": "349", "hotel_lat": "28.170655", "hotel_point": "4.6", "hotel_label": ["考场周边", "浪漫情侣", "商务出行"], "hotel_name": "长沙诺博美誉酒店"},
{"hotel_img": "//dimg12.c-ctrip.com/images/200m0m000000dz0by66D5_R_170_170.jpg", "hotel_lon": "112.910785", "hotel_facility": ["公共区域免费WIFI", "停车场", "餐厅", "接机服务", "游泳池", "健身房"], "hotel_id": "5753878", "hotel_judgement": "966", "hotel_address": "岳麓区梅溪湖环湖路1177号，近梅溪湖国际文化艺术中心,地铁２号线文化艺术中心站直达，２号口出３分钟步行到达酒店。 ", "hotel_price": "1015", "hotel_lat": "28.201772", "hotel_point": "4.7", "hotel_label": ["考场周边", "休闲度假", "浪漫情侣"], "hotel_name": "长沙梅溪湖金茂豪华精选酒店"},
{"hotel_img": "//dimg11.c-ctrip.com/images/200d0q000000gaak47B9B_R_170_170.jpg", "hotel_lon": "112.940352", "hotel_facility": ["公共区域免费WIFI", "停车场", "餐厅", "会议室"], "hotel_id": "6123042", "hotel_judgement": "2817", "hotel_address": "岳麓区桐梓坡路399号(王府井对面)，河西步步高广场对面。 ", "hotel_price": "277", "hotel_lat": "28.223646", "hotel_point": "4.8", "hotel_label": ["考场周边", "浪漫情侣", "商务出行"], "hotel_name": "维也纳国际酒店(长沙时代帝景店)"},
{"hotel_img": "//dimg12.c-ctrip.com/images/200f0l000000d6h9q036C_R_170_170.jpg", "hotel_lon": "113.01444169352", "hotel_facility": ["公共区域免费WIFI", "停车场", "餐厅", "接机服务", "健身房", "会议室"], "hotel_id": "776463", "hotel_judgement": "4101", "hotel_address": "芙蓉区八一路88号，火车站，五一路。距地铁站，民航大巴步行5分钟。。 ", "hotel_price": "474", "hotel_lat": "28.203559807389", "hotel_point": "4.7", "hotel_label": ["考场周边", "浪漫情侣", "商务出行"], "hotel_name": "湖南富丽华大酒店"},
{"hotel_img": "//dimg11.c-ctrip.com/images/200k0r000000h5adu12A1_R_170_170.jpg", "hotel_lon": "112.869078", "hotel_facility": ["公共区域免费WIFI", "停车场", "餐厅", "接机服务", "游泳池", "健身房"], "hotel_id": "6869823", "hotel_judgement": "162", "hotel_address": "岳麓区枫林三路1099号A区，安夏路和东方红路的交界处。 ", "hotel_price": "558", "hotel_lat": "28.201491", "hotel_point": "4.7", "hotel_label": ["考场周边", "商务出行"], "hotel_name": "长沙步步高福朋喜来登酒店"},
{"hotel_img": "//dimg12.c-ctrip.com/images/200e070000002g073F3CC_R_170_170.jpg", "hotel_lon": "113.03551382033", "hotel_facility": ["公共区域免费WIFI", "停车场", "餐厅", "会议室"], "hotel_id": "1273527", "hotel_judgement": "5669", "hotel_address": "雨花区香樟路与圭塘路交汇处，雨花区政府旁，距离高铁站3公里整,长株潭城际铁路香樟路站口。 ", "hotel_price": "298", "hotel_lat": "28.143509872445", "hotel_point": "4.8", "hotel_label": ["考场周边", "休闲度假", "浪漫情侣"], "hotel_name": "长沙湘府新都大酒店"},
{"hotel_img": "//dimg13.c-ctrip.com/images/fd/hotel/g4/M08/7D/CD/CggYHVXoUcaAZ52sAApajCUnAes754_R_170_170.jpg", "hotel_lon": "113.00494219399", "hotel_facility": ["公共区域免费WIFI", "停车场", "餐厅", "接机服务", "游泳池", "健身房"], "hotel_id": "447726", "hotel_judgement": "6398", "hotel_address": "芙蓉区解放东路300号，近地铁二号线站台、市中心、五一广场。 ", "hotel_price": "521", "hotel_lat": "28.196525313852", "hotel_point": "4.6", "hotel_label": ["考场周边", "休闲度假", "亲子酒店"], "hotel_name": "长沙华天大酒店总店"},
{"hotel_img": "//dimg11.c-ctrip.com/images/200b0g0000007outjA725_R_170_170.jpg", "hotel_lon": "113.048878", "hotel_facility": ["公共区域免费WIFI", "停车场", "餐厅", "接机服务", "游泳池", "健身房"], "hotel_id": "6532385", "hotel_judgement": "561", "hotel_address": "雨花区沙湾路289号运达中央广场，近地铁2号线，长沙大道站B1出口。 ", "hotel_price": "1543", "hotel_lat": "28.177163", "hotel_point": "4.8", "hotel_label": ["考场周边", "商务出行"], "hotel_name": "长沙瑞吉酒店"},
{"hotel_img": "//dimg11.c-ctrip.com/images/hotel/433000/432931/237b9972c2f441e1bf6675a2937aa02c_R_170_170.jpg", "hotel_lon": "113.00792013233", "hotel_facility": ["公共区域免费WIFI", "停车场", "餐厅", "接机服务", "会议室"], "hotel_id": "468230", "hotel_judgement": "3110", "hotel_address": "芙蓉区解放东路233号，近曙光北路。 ", "hotel_price": "469", "hotel_lat": "28.196298715164", "hotel_point": "4.6", "hotel_label": ["考场周边", "休闲度假", "浪漫情侣"], "hotel_name": "长沙中国城戴斯酒店"},
{"hotel_img": "//dimg10.c-ctrip.com/images/200l0h0000008w8o6006F_R_170_170.jpg", "hotel_lon": "112.9939478044", "hotel_facility": ["公共区域免费WIFI", "停车场", "餐厅", "接机服务", "健身房", "会议室"], "hotel_id": "438446", "hotel_judgement": "2381", "hotel_address": "芙蓉区五一大道648号，近长沙古玩一条街。 ", "hotel_price": "529", "hotel_lat": "28.201159854158", "hotel_point": "4.2", "hotel_label": ["考场周边", "休闲度假", "浪漫情侣"], "hotel_name": "长沙小天鹅戴斯酒店"},
{"hotel_img": "//dimg11.c-ctrip.com/images/2008050000000s2859DAB_R_170_170.jpg", "hotel_lon": "112.99123215955", "hotel_facility": ["公共区域免费WIFI", "停车场", "餐厅", "会议室"], "hotel_id": "435722", "hotel_judgement": "5682", "hotel_address": "芙蓉区芙蓉中路一段540号，近五一路，地铁二号线出口旁。 ", "hotel_price": "359", "hotel_lat": "28.20277232368", "hotel_point": "4.7", "hotel_label": ["考场周边", "浪漫情侣", "商务出行"], "hotel_name": "维也纳国际酒店(长沙芙蓉广场店)"},
{"hotel_img": "//dimg13.c-ctrip.com/images/200r080000002udk6ED0D_R_170_170.jpg", "hotel_lon": "112.94156865898", "hotel_facility": ["公共区域免费WIFI", "停车场", "餐厅", "接机服务", "健身房", "会议室"], "hotel_id": "467321", "hotel_judgement": "3899", "hotel_address": "岳麓区金星中路528号，近银双路。 ", "hotel_price": "369", "hotel_lat": "28.229435732029", "hotel_point": "4.5", "hotel_label": ["考场周边", "浪漫情侣", "商务出行"], "hotel_name": "湖南茉莉花国际酒店"},
{"hotel_img": "//dimg10.c-ctrip.com/images/200e050000000le3045DC_R_170_170.jpg", "hotel_lon": "113.03767184712", "hotel_facility": ["公共区域免费WIFI", "停车场", "餐厅", "游泳池", "健身房", "会议室"], "hotel_id": "3652129", "hotel_judgement": "8355", "hotel_address": "芙蓉区万家丽中路99号万家丽国际购物广场北门，无缝对接万家丽高架、万家丽地铁2号线出口、高桥大市场、荷花路。 ", "hotel_price": "547", "hotel_lat": "28.196768862041", "hotel_point": "4.7", "hotel_label": ["考场周边", "休闲度假", "浪漫情侣"], "hotel_name": "长沙万家丽国际大酒店"},
{"hotel_img": "//dimg13.c-ctrip.com/images/fd/hotel/g4/M09/25/88/CggYHVYDQe-AekWSAATgkEulgck267_R_170_170.jpg", "hotel_lon": "112.9860260581", "hotel_facility": ["公共区域免费WIFI", "停车场", "餐厅", "接机服务", "会议室"], "hotel_id": "443184", "hotel_judgement": "11857", "hotel_address": "芙蓉区五一大道838号，五一广场地铁站出口旁。 ", "hotel_price": "316", "hotel_lat": "28.201198082993", "hotel_point": "4.2", "hotel_label": ["考场周边", "休闲度假", "浪漫情侣"], "hotel_name": "长沙大成国际大酒店"},
{"hotel_img": "//dimg10.c-ctrip.com/images/20090m000000dvklaC52D_R_170_170.jpg", "hotel_lon": "112.987992", "hotel_facility": ["公共区域免费WIFI", "停车场", "餐厅", "会议室"], "hotel_id": "12824982", "hotel_judgement": "442", "hotel_address": "芙蓉区蔡锷中路48号永华大厦，近地铁2号线、IFS国金中心。 ", "hotel_price": "257", "hotel_lat": "28.199618", "hotel_point": "4.7", "hotel_label": ["考场周边", "商务出行"], "hotel_name": "长沙曼哈顿酒店"},
{"hotel_img": "//dimg12.c-ctrip.com/images/200c0j0000009wkv8EB90_R_170_170.jpg", "hotel_lon": "112.992794", "hotel_facility": ["公共区域免费WIFI", "停车场", "餐厅", "健身房", "会议室"], "hotel_id": "458310", "hotel_judgement": "2939", "hotel_address": "天心区芙蓉中路508号之三，近贺龙体育馆（演唱会正门），近地铁一号线侯家塘站、天心阁、黄兴路步行街）。 ", "hotel_price": "379", "hotel_lat": "28.186853", "hotel_point": "4.6", "hotel_label": ["考场周边", "浪漫情侣", "商务出行"], "hotel_name": "长沙君逸康年大酒店"},
{"hotel_img": "//dimg12.c-ctrip.com/images/hotel/48000/47415/F6A4308CEDF84836A3F5D57BF48457BF_R_170_170.Jpg", "hotel_lon": "112.99410811302", "hotel_facility": ["公共区域免费WIFI", "停车场", "餐厅", "会议室"], "hotel_id": "455740", "hotel_judgement": "2555", "hotel_address": "开福区芙蓉中路一段191，近湘雅路。 ", "hotel_price": "279", "hotel_lat": "28.224077911933", "hotel_point": "4.3", "hotel_label": ["考场周边", "浪漫情侣", "商务出行"], "hotel_name": "长沙好来登大酒店"},
{"hotel_img": "//dimg10.c-ctrip.com/images/200l0r000000hadkwF80C_R_170_170.jpg", "hotel_lon": "113.01410425364", "hotel_facility": ["公共区域免费WIFI", "停车场", "餐厅", "会议室", "穿梭机场班车"], "hotel_id": "762554", "hotel_judgement": "196", "hotel_address": "芙蓉区五一大道47号，近民航总局售票处。 ", "hotel_price": "258", "hotel_lat": "28.199591925595", "hotel_point": "4.9", "hotel_label": ["考场周边"], "hotel_name": "山水时尚酒店(长沙民航店)(原民航大酒店)"},
{"hotel_img": "//dimg11.c-ctrip.com/images/200l0f0000007e7zz35BD_R_170_170.jpg", "hotel_lon": "113.000917", "hotel_facility": ["公共区域免费WIFI", "停车场", "会议室"], "hotel_id": "6067542", "hotel_judgement": "1067", "hotel_address": "雨花区梓园路520号，大财门，人民路与梓园路交汇处，湘雅附二医院对面。 ", "hotel_price": "256", "hotel_lat": "28.190653", "hotel_point": "4.6", "hotel_label": ["考场周边"], "hotel_name": "精途酒店(长沙湘雅附二医院店)"},
{"hotel_img": "//dimg11.c-ctrip.com/images/fd/hotel/g3/M05/A3/60/CggYGVXrtQyAbx9MAAYoqlK5_Rk617_R_170_170.jpg", "hotel_lon": "112.99912187153", "hotel_facility": ["公共区域免费WIFI", "停车场"], "hotel_id": "1847267", "hotel_judgement": "3436", "hotel_address": "开福区东风路248号鸥波港湾（下大垅公交站），近工商巷。 ", "hotel_price": "180", "hotel_lat": "28.223934442627", "hotel_point": "4.5", "hotel_label": ["考场周边"], "hotel_name": "早安旅居酒店(长沙博物馆店)"},
{"hotel_img": "//dimg12.c-ctrip.com/images/20030n000000edhxe13A8_R_170_170.jpg", "hotel_lon": "113.06763", "hotel_facility": ["公共区域免费WIFI", "停车场", "餐厅", "接机服务", "会议室"], "hotel_id": "13302160", "hotel_judgement": "474", "hotel_address": "雨花区花侯路与劳动东路交汇处东北角（平阳商业广场），近人民东路。 ", "hotel_price": "287", "hotel_lat": "28.164578", "hotel_point": "4.7", "hotel_label": ["浪漫情侣", "商务出行"], "hotel_name": "品漫酒店(长沙高铁南站店)"},
{"hotel_img": "//dimg12.c-ctrip.com/images/200n0i0000009fzdj2D3E_R_170_170.jpg", "hotel_lon": "112.99111483616", "hotel_facility": ["公共区域免费WIFI", "停车场", "餐厅"], "hotel_id": "445964", "hotel_judgement": "4007", "hotel_address": "芙蓉区芙蓉中路218号，八一桥路口与中山医院对面。 ", "hotel_price": "218", "hotel_lat": "28.2033189625", "hotel_point": "4.6", "hotel_label": ["考场周边", "浪漫情侣"], "hotel_name": "维也纳酒店(长沙八一桥和府店)"},
{"hotel_img": "//dimg11.c-ctrip.com/images/200d0k000000b2638D984_R_170_170.jpg", "hotel_lon": "113.023952", "hotel_facility": ["公共区域免费WIFI", "停车场", "餐厅", "会议室"], "hotel_id": "10474023", "hotel_judgement": "981", "hotel_address": "雨花区劳动东路5号汇远大厦，近东二环。 ", "hotel_price": "276", "hotel_lat": "28.162083", "hotel_point": "4.8", "hotel_label": ["考场周边", "浪漫情侣", "商务出行"], "hotel_name": "维也纳国际酒店(长沙树木岭城铁站店)"},
{"hotel_img": "//dimg13.c-ctrip.com/images/hotel/79000/78381/98d3da94e23f49db8e421abd15e632d9_R_170_170.jpg", "hotel_lon": "113.0022277489", "hotel_facility": ["公共区域免费WIFI", "停车场", "餐厅", "游泳池", "健身房", "会议室"], "hotel_id": "426938", "hotel_judgement": "2050", "hotel_address": "天心区湘府中路198号，湘府中路和五凌路交汇处、天心区政府东面。 ", "hotel_price": "476", "hotel_lat": "28.11870837984", "hotel_point": "4.5", "hotel_label": ["考场周边", "休闲度假", "浪漫情侣"], "hotel_name": "长沙豪布斯卡酒店"},
{"hotel_img": "//dimg13.c-ctrip.com/images/200v0900000042a9o8E28_R_170_170.jpg", "hotel_lon": "112.97801035646", "hotel_facility": ["公共区域免费WIFI", "停车场", "餐厅", "会议室"], "hotel_id": "1282800", "hotel_judgement": "3220", "hotel_address": "天心区五一大道775号，近太平街。 ", "hotel_price": "198", "hotel_lat": "28.200846352494", "hotel_point": "4.4", "hotel_label": ["考场周边"], "hotel_name": "锦江之星(长沙五一广场地铁站店)(原五一广场店)"},
{"hotel_img": "//dimg12.c-ctrip.com/images/fd/hotel/g4/M08/27/84/CggYHFYDceSAKZ1EAALag-mtvO4765_R_170_170.jpg", "hotel_lon": "113.01955102016", "hotel_facility": ["公共区域免费WIFI", "停车场", "餐厅", "接机服务", "游泳池", "健身房"], "hotel_id": "439906", "hotel_judgement": "3000", "hotel_address": "雨花区湘府中路9号（与中意一路交汇处），毗邻德思勤商业广场及红星会展中心。 ", "hotel_price": "560", "hotel_lat": "28.115977653706", "hotel_point": "4.6", "hotel_label": ["考场周边", "休闲度假", "浪漫情侣"], "hotel_name": "长沙融程花园酒店"},
{"hotel_img": "//dimg10.c-ctrip.com/images/200f0k000000bso9s1AC2_R_170_170.jpg", "hotel_lon": "113.051626476", "hotel_facility": ["公共区域免费WIFI", "停车场", "餐厅", "接机服务"], "hotel_id": "2873001", "hotel_judgement": "661", "hotel_address": "开福区广电中心内，湖南卫视总台后100米。 ", "hotel_price": "388", "hotel_lat": "28.245763953451", "hotel_point": "4.5", "hotel_label": ["考场周边", "浪漫情侣", "商务出行"], "hotel_name": "长沙圣爵菲斯之家商务宾馆"},
{"hotel_img": "//dimg10.c-ctrip.com/images/fd/hotel/g3/M03/8C/7D/CggYGlZcgHGASplAAAiOpkp_Q2Y388_R_170_170.jpg", "hotel_lon": "113.05637883872", "hotel_facility": ["公共区域免费WIFI", "停车场", "餐厅", "接机服务", "游泳池", "健身房"], "hotel_id": "511538", "hotel_judgement": "2309", "hotel_address": "开福区浏阳河大桥东金鹰影视文化城，近会展路。 ", "hotel_price": "665", "hotel_lat": "28.242636878641", "hotel_point": "4.7", "hotel_label": ["休闲度假", "浪漫情侣", "商务出行"], "hotel_name": "湖南圣爵菲斯大酒店"},
{"hotel_img": "//dimg11.c-ctrip.com/images/200t0o000000ep1j62897_R_170_170.jpg", "hotel_lon": "112.94967", "hotel_facility": ["公共区域免费WIFI", "停车场", "餐厅", "接机服务", "会议室"], "hotel_id": "13410475", "hotel_judgement": "329", "hotel_address": "岳麓区岳麓大道186号，近观沙路。 ", "hotel_price": "349", "hotel_lat": "28.233093", "hotel_point": "4.7", "hotel_label": ["考场周边"], "hotel_name": "长沙悦江酒店"},
{"hotel_img": "//dimg11.c-ctrip.com/images/200s0l000000dfloy841A_R_170_170.jpg", "hotel_lon": "112.987159559293", "hotel_facility": ["公共区域WIFI", "停车场"], "hotel_id": "11154614", "hotel_judgement": "588", "hotel_address": "芙蓉区蔡锷中路185号五一钻界24楼。 ", "hotel_price": "204", "hotel_lat": "28.2027034695155", "hotel_point": "4.6", "hotel_label": ["考场周边"], "hotel_name": "长沙云季酒店"},
{"hotel_img": "//dimg10.c-ctrip.com/images/200s0i0000009blhl6B29_R_170_170.jpg", "hotel_lon": "112.99957678287", "hotel_facility": ["公共区域免费WIFI", "停车场", "餐厅", "游泳池", "健身房", "会议室"], "hotel_id": "440296", "hotel_judgement": "2429", "hotel_address": "天心区湘府中路258号，近天心区政府和湖南省政府。 ", "hotel_price": "420", "hotel_lat": "28.118418255797", "hotel_point": "4.7", "hotel_label": ["考场周边", "浪漫情侣", "商务出行"], "hotel_name": "长沙鑫远白天鹅酒店"},
{"hotel_img": "//dimg10.c-ctrip.com/images/200l0s000000hxnu04BF6_R_170_170.jpg", "hotel_lon": "113.045765", "hotel_facility": ["公共区域免费WIFI", "停车场", "餐厅", "会议室"], "hotel_id": "17016658", "hotel_judgement": "40", "hotel_address": "芙蓉区古曲北路22号（中欣楚天熙苑），近古曲北路。 ", "hotel_price": "261", "hotel_lat": "28.205959", "hotel_point": "4.5", "hotel_label": ["考场周边"], "hotel_name": "维也纳国际酒店(长沙万家丽广场店)"},
{"hotel_img": "//dimg11.c-ctrip.com/images/200n0e00000072xy8604B_R_170_170.jpg", "hotel_lon": "113.014644", "hotel_facility": ["公共区域免费WIFI", "停车场"], "hotel_id": "6386826", "hotel_judgement": "1535", "hotel_address": "雨花区香樟路255号云集大厦，近年轮骨科医院。 ", "hotel_price": "186", "hotel_lat": "28.142534", "hotel_point": "4.8", "hotel_label": ["考场周边", "浪漫情侣", "商务出行"], "hotel_name": "希岸酒店(长沙民政学院店)"},
{"hotel_img": "//dimg11.c-ctrip.com/images/200904000000050yk843F_R_170_170.jpg", "hotel_lon": "112.91154125398", "hotel_facility": ["公共区域免费WIFI", "停车场", "餐厅", "会议室"], "hotel_id": "1811660", "hotel_judgement": "1615", "hotel_address": "云栖路与车塘河路交汇处，云栖谷小区对面。 ", "hotel_price": "306", "hotel_lat": "28.147942365485", "hotel_point": "4.6", "hotel_label": ["考场周边", "休闲度假", "浪漫情侣"], "hotel_name": "长沙美郡国际酒店"},
{"hotel_img": "//dimg11.c-ctrip.com/images/hotel/435000/434271/74c23ea253d646c89631ed4f4b5a4e60_R_170_170.jpg", "hotel_lon": "112.99846772414", "hotel_facility": ["公共区域免费WIFI", "停车场", "餐厅", "游泳池", "健身房", "会议室"], "hotel_id": "697490", "hotel_judgement": "2089", "hotel_address": "开福区福元西路99号，与芙蓉北路交汇处。 ", "hotel_price": "498", "hotel_lat": "28.257728131093", "hotel_point": "4.6", "hotel_label": ["休闲度假", "浪漫情侣", "商务出行"], "hotel_name": "长沙珠江花园酒店"},
{"hotel_img": "//dimg13.c-ctrip.com/images/200f0k000000bk6ew7637_R_170_170.jpg", "hotel_lon": "112.995208", "hotel_facility": ["公共区域免费WIFI", "停车场", "餐厅", "会议室"], "hotel_id": "7850609", "hotel_judgement": "1007", "hotel_address": "友谊路413号运成大厦，近芙蓉南路。 ", "hotel_price": "364", "hotel_lat": "28.129553", "hotel_point": "4.7", "hotel_label": ["考场周边", "浪漫情侣", "商务出行"], "hotel_name": "长沙运成雅美酒店"},
{"hotel_img": "//dimg13.c-ctrip.com/images/200i0k000000btxs2F446_R_170_170.jpg", "hotel_lon": "113.00281879206", "hotel_facility": ["公共区域免费WIFI", "停车场", "餐厅", "会议室"], "hotel_id": "1488117", "hotel_judgement": "1797", "hotel_address": "芙蓉区营盘东路193号，近年嘉湖隧道。 ", "hotel_price": "286", "hotel_lat": "28.211172343599", "hotel_point": "4.8", "hotel_label": ["考场周边", "浪漫情侣", "商务出行"], "hotel_name": "湖南宾馆"},